Fuel Type Code,Station Name,Street Address,Intersection Directions,City,State,ZIP,Plus4,Station Phone,Status Code,Expected Date,Groups With Access Code,Access Days Time,Cards Accepted,BD Blends,NG Fill Type Code,NG PSI,EV Level1 EVSE Num,EV Level2 EVSE Num,EV DC Fast Count,EV Other Info,EV Network,EV Network Web,Geocode Status,Latitude,Longitude,Date Last Confirmed,ID,Updated At,Owner Type Code,Federal Agency ID,Federal Agency Name,Open Date,Hydrogen Status Link,NG Vehicle Class,LPG Primary,E85 Blender Pump,EV Connector Types,Country,Intersection Directions (French),Access Days Time (French),BD Blends (French),Groups With Access Code (French),Hydrogen Is Retail,Access Code,Access Detail Code,Federal Agency Code,Facility Type,CNG Dispenser Num,CNG On-Site Renewable Source,CNG Total Compression Capacity,CNG Storage Capacity,LNG On-Site Renewable Source,E85 Other Ethanol Blends,EV Pricing,EV Pricing (French),LPG Nozzle Types,Hydrogen Pressures,Hydrogen Standards,CNG Fill Type Code,CNG PSI,CNG Vehicle Class,LNG Vehicle Class,EV On-Site Renewable Source,Restricted Access,RD Blends,RD Blends (French),RD Blended with Biodiesel,RD Maximum Biodiesel Level,NPS Unit Name,CNG Station Sells Renewable Natural Gas,LNG Station Sells Renewable Natural Gas,Maximum Vehicle Class
LPG,Awisco,24 Lakeside Ave,At Standish,West Orange,NJ,07052,,973-736-0200,E,,Public,"7am-4:30pm M-F, 8am-12pm Sat",A Cash D M V,,,,,,,,,,200-8,40.782618,-74.232109,2022-11-10,13367,2023-02-14 15:54:11 UTC,P,,,1999-07-08,,,true,,,US,,,,Public,,public,,,FUEL_RESELLER,,,,,,,,,"[""ACME""]",,,,,,,,false,,,,,,,,HD
LPG,Modern Propane Gas Co,199 Route 46 W,1 mile west of Teterboro Airport,Lodi,NJ,07644,,973-778-0812,E,,Public,"8am-8pm M-F, 8am-5pm Sat-Sun",A Cash D M V,,,,,,,,,,200-9,40.875277,-74.070034,2022-11-10,13371,2023-02-14 15:54:11 UTC,P,,,1999-07-08,,,false,,,US,,,,Public,,public,,,FUEL_RESELLER,,,,,,,,,"[""ACME""]",,,,,,,,false,,,,,,,,HD
LPG,U-Haul,276 Tonnelle Ave,At Tonnelle Cir,Jersey City,NJ,07306,,201-963-6176,E,,Public,"7am-7pm M-Th and Sat, 7am-8pm F, 9am-5pm Sun",A Cash D M V,,,,,,,,,,200-9,40.739785,-74.063833,2023-02-13,19216,2023-02-14 15:54:11 UTC,P,,,2000-11-01,,,false,,,US,,,,Public,,public,,,RENTAL_CAR_RETURN,,,,,,,,,"[""ACME"", ""QUICK_CONNECT""]",,,,,,,,false,,,,,,,,HD
LPG,U-Haul,397 Route 18 S,"East of New Jersey Turnpike, just past Lowe's.",East Brunswick,NJ,08816,,732-254-9148,E,,Public,"7am-7pm M-Th and Sat, 7am-8pm F, 9am-5pm Sun",A Cash D M V,,,,,,,,,,GPS,40.44863757744279,-74.39721353862308,2023-02-13,19229,2023-02-14 15:54:11 UTC,P,,,2000-11-01,,,false,,,US,,,,Public,,public,,,RENTAL_CAR_RETURN,,,,,,,,,"[""ACME"", ""QUICK_CONNECT""]",,,,,,,,false,,,,,,,,HD
CNG,New Jersey Natural Gas - Ocean Division Operations Center,775 Vassar Ave,,Lakewood Township,NJ,08701,,732-919-8000,E,,Private - Fleet customers only,Contact station to set up fueling account,Proprietor,,Q,3600,,,,,,,200-9,40.067935,-74.182404,2022-10-11,23206,2023-09-25 14:53:41 UTC,T,,,2002-04-15,,HD,,,,US,,,,Privé - Réservé aux clients de parcs,,private,FLEET,,UTILITY,2,,760,31664,,,,,,,,Q,3600,HD,,,,,,,,,false,,HD
CNG,Port Authority of New York and New Jersey - Holland Tunnel,13th & Provost St,,Jersey City,NJ,07310,,,E,,Private,,,,Q,3000 3600,,,,,,,GPS,40.730667,-74.039876,2023-02-13,23208,2023-09-25 15:07:43 UTC,P,,,2014-04-15,,MD,,,,US,,,,Privé,,private,,,STANDALONE_STATION,2,,,,,,,,,,,Q,3000 3600,MD,,,,,,,,,false,,MD
BD,Woolley Fuel Co,12 Burnett Ave,At Springfield Avenue.,Maplewood,NJ,07040,,973-762-7400,E,,Public,"8am-4:30pm M-F, 8am-12pm Sat (Sat hours in winter only)",A Cash Checks D M V,"B30, any blend up to B30 available",,,,,,,,,200-8,40.721806,-74.258273,2022-11-10,33488,2023-07-14 21:08:14 UTC,P,,,2005-12-15,,,,,,US,,,,Public,,public,,,STANDALONE_STATION,,,,,,,,,,,,,,,,,false,,,,,,,,MD
BD,Princeton Plasma Physics Laboratory,100 Stellarator Rd,,Princeton,NJ,08453,,,E,,Private - Government only,,,B20,,,,,,,,,GPS,40.350011,-74.604169,2022-07-12,33620,2023-05-30 18:46:28 UTC,FG,8,U.S. Department of Energy,2008-12-15,,,,,,US,,,,Privé - Réservé au gouvernement,,private,GOVERNMENT,DOE,RESEARCH_FACILITY,,,,,,,,,,,,,,,,,,,,,,,,,
E85,Princeton Plasma Physics Laboratory,100 Stellarator Rd,,Princeton,NJ,08453,,,E,,Private - Government only,,,,,,,,,,,,GPS,40.350011,-74.604169,2022-07-12,33676,2023-05-30 18:46:28 UTC,FG,8,U.S. Department of Energy,2010-09-15,,,,false,,US,,,,Privé - Réservé au gouvernement,,private,GOVERNMENT,DOE,RESEARCH_FACILITY,,,,,,,,,,,,,,,,,,,,,,,,,
E85,Mighty Joe's Gas Station,1231 Route 206,,Shamong,NJ,08088,,609-268-0303,E,,Public - Credit card after hours,6am-9pm daily,A Cash D Debit M V Voyager Wright_Exp,,,,,,,,,,200-8,39.81018,-74.7367,2022-11-10,35203,2023-09-20 21:02:24 UTC,P,,,2009-07-15,,,,false,,US,,,,Public - Carte de crédit après les heures d'ouverture,,public,CREDIT_CARD_AFTER_HOURS,,CONVENIENCE_STORE,,,,,,,,,,,,,,,,,false,,,,,,,,MD
CNG,Clean Energy - Central Jersey Waste,500 Breunig Ave,,Trenton,NJ,08638,,,E,,Private,,,,T,3000,,,,,,,200-9,40.23782,-74.73677,2022-12-13,35227,2023-08-25 15:12:32 UTC,P,,,2009-11-15,,HD,,,,US,,,,Privé,,private,,,FLEET_GARAGE,,,,,,,,,,,,T,3000,HD,,,,,,,,,,,HD
CNG,Clean Energy - Atlantic County Utilities Authority,6700 Delilah Rd,Delilah Rd and Doughty Rd,Egg Harbor Township,NJ,08234,,866-809-4869,E,,Public - Credit card at all times,24 hours daily; call 866-809-4869 for Clean Energy card; Also accepts ACUA,CleanEnergy D FuelMan M V Voyager Wright_Exp,,Q,3000 3600,,,,,,,200-9,39.417088,-74.538731,2022-12-13,35309,2023-08-25 15:12:32 UTC,T,,,2010-10-15,,HD,,,,US,,,,Public - Carte de crédit en tout temps,,public,CREDIT_CARD_ALWAYS,,UTILITY,2,,1000,,,,,,,,,Q,3000 3600,HD,,,false,,,,,,,,HD
E85,Power Gas,205 Sanford St,,East Orange,NJ,07018,,973-678-2002,E,,Public,5am-12am daily,A Cash D Debit M V Voyager Wright_Exp,,,,,,,,,,200-8,40.7551,-74.22848,2022-11-10,35537,2023-09-13 20:32:19 UTC,P,,,2018-05-15,,,,false,,US,,,,Public,,public,,,CONVENIENCE_STORE,,,,,,,,,,,,,,,,,false,,,,,,,,MD
CNG,New Jersey Natural Gas - Central Division Operations Center,1420 Wyckoff Rd,,Wall Township,NJ,07727,,732-919-8000,E,,Private - Fleet customers only,Contact station to set up fueling account,Proprietor,,Q,3600,,,,,,,200-9,40.2097,-74.126084,2022-10-11,35942,2023-09-25 14:53:41 UTC,T,,,2002-04-15,,HD,,,,US,,,,Privé - Réservé aux clients de parcs,,private,FLEET,,UTILITY,1,,760,31664,,,,,,,,Q,3600,HD,,,,,,,,,false,,HD
CNG,Clean Energy - Atlantic City Jitney Association,6821 Delilah Rd,Delilah Rd and Fire Rd.,Egg Harbor Township,NJ,08406,,562-493-2804  609-344-8642,E,,Public - Credit card at all times,24 hours daily,A CleanEnergy D FuelMan M V Voyager Wright_Exp,,Q,3000 3600,,,,,,,200-9,39.410942,-74.53063,2023-09-14,36309,2023-09-14 14:01:49 UTC,P,,,2015-10-01,,HD,,,,US,,,,Public - Carte de crédit en tout temps,,public,CREDIT_CARD_ALWAYS,,STANDALONE_STATION,4,NONE,1000,,,,,,,,,Q,3000 3600,HD,,,false,,,,,,true,,HD
CNG,Newark Liberty International Airport - Wally Park,100 Lindbergh Rd,Building 349.,Newark,NJ,07114,,866-809-4869  973-624-0500,E,,Public - Credit card at all times,24 hours daily,A CleanEnergy Comdata D FleetOne FuelMan M V Voyager Wright_Exp,,Q,3000 3600,,,,,,,GPS,40.691831,-74.184861,2023-09-14,36310,2023-09-14 14:01:49 UTC,P,,,2010-12-15,,MD,,,,US,,,,Public - Carte de crédit en tout temps,,public,CREDIT_CARD_ALWAYS,,AIRPORT,2,NONE,1000,,,,,,,,,Q,3000 3600,MD,,,false,,,,,,true,,MD
E85,Newark Liberty International Airport - Wally Park,100 Lindbergh Rd,Building 349.,Newark,NJ,07114,,866-809-4869  973-624-0500,E,,Public,24 hours daily,A Cash D M V,,,,,,,,,,GPS,40.691831,-74.184861,2023-09-14,36326,2023-09-14 14:01:49 UTC,P,,,2010-09-15,,,,false,,US,,,,Public,,public,,,AIRPORT,,,,,,,,,,,,,,,,,false,,,,,,,,LD
ELEC,Element Hotels - Ewing,1000 Sam Weinroth Rd,,Ewing,NJ,08628,,609-671-0050,E,,Public,24 hours daily; for guest use only,,,,,,2,,,Non-Networked,,GPS,40.286518,-74.807516,2022-12-13,36368,2023-02-14 15:54:11 UTC,P,,,2010-05-15,,,,,J1772,US,,,,Public,,public,,,HOTEL,,,,,,,Free,,,,,,,,,,true,,,,,,,,LD
CNG,Clean N' Green,1001 Fairview St,,Camden,NJ,08104,,800-331-3441,E,,Public - Credit card at all times,24 hours daily,D FuelMan M Proprietor V Voyager Wright_Exp,,Q,3600,,,,,,,200-8,39.914001,-75.108896,2022-12-13,39060,2023-08-25 15:12:32 UTC,P,,,2011-06-08,,HD,,,,US,,,,Public - Carte de crédit en tout temps,,public,CREDIT_CARD_ALWAYS,,STANDALONE_STATION,2,,,,,,,,,,,Q,3600,HD,,,false,,,,,,,,HD
ELEC,PALMER SQUARE CHAMBERS GARAGE,25 Chambers St,,Princeton,NJ,08542,,888-758-4389,E,,Public,24 hours daily,,,,,,2,,,ChargePoint Network,http://www.chargepoint.com/,GPS,40.350118,-74.662732,2023-09-26,41849,2023-09-26 00:29:33 UTC,,,,2011-10-15,,,,,J1772,US,,,,Public,,public,,,,,,,,,,,,,,,,,,,,,,,,,,,,
CNG,Clean Energy - Blue Diamond Disposal,5 Howard Blvd,,Mt. Arlington,NJ,07856,,,E,,Private,,,,B,3600,,,,,,,200-8,40.89887,-74.633999,2023-09-14,41976,2023-09-14 14:01:49 UTC,P,,,2011-12-09,,HD,,,,US,,,,Privé,,private,,,FLEET_GARAGE,,,,,,,,,,,,B,3600,HD,,,,,,,,,,,HD
CNG,South Jersey Gas,142 S Main St,At the intersection of Grove St and Academy St.,Glassboro,NJ,08028,,866-278-3674,E,,Public - Credit card at all times,24 hours daily,CleanEnergy D FuelMan M V Voyager Wright_Exp,,Q,3600,,,,,,,200-9,39.697476,-75.112075,2022-12-13,42091,2023-09-25 15:01:25 UTC,T,,,2012-02-15,,HD,,,,US,,,,Public - Carte de crédit en tout temps,,public,CREDIT_CARD_ALWAYS,,UTILITY,2,LANDFILL,1000,,,,,,,,,Q,3600,HD,,,false,,,,,,true,,HD
ELEC,Elizabeth Parking Authority - J Christian Bollwage Garage,37 Caldwell Pl,Located on lower level of garage,Elizabeth,NJ,07201,,908-353-0949,E,,Public - Credit card at all times,Restricted to garage hours; pay lot,M V,,,,,2,,,Non-Networked,,200-9,40.663848,-74.216585,2023-02-13,42907,2023-02-14 15:54:11 UTC,LG,,,2012-04-15,,,,,J1772,US,,,,Public - Carte de crédit en tout temps,,public,CREDIT_CARD_ALWAYS,,PARKING_GARAGE,,,,,,,Free,,,,,,,,,,true,,,,,,,,LD
ELEC,Elite Nissan of Bergenfield,318 S Washington Ave,,Bergenfield,NJ,07621,,201-385-3600,E,,Public - Call ahead,Dealership business hours,,,,,,1,,,Non-Networked,,200-9,40.917338,-73.997447,2020-06-09,45662,2021-03-11 23:22:17 UTC,P,,,2012-01-31,,,,,J1772,US,,,,Public - Appeler à l'avance,,public,CALL,,CAR_DEALER,,,,,,,Free,,,,,,,,,,false,,,,,,,,
ELEC,Lynnes Nissan City,318 Bloomfield Ave,,Bloomfield,NJ,07003,,973-743-2111,E,,Public - Call ahead,Dealership business hours,,,,,,2,1,,Non-Networked,,GPS,40.784797,-74.193494,2022-03-07,45664,2023-02-14 15:54:11 UTC,P,,,2012-01-31,,,,,CHADEMO J1772,US,,,,Public - Appeler à l'avance,,public,CALL,,CAR_DEALER,,,,,,,Free,,,,,,,,,,false,,,,,,,,LD
ELEC,Route 23 Nissan,1301 Route 23,,Butler,NJ,07405,,973-838-0800,E,,Public - Call ahead,Dealership business hours,,,,,,1,,,Non-Networked,,200-9,40.991256,-74.347338,2020-06-09,45666,2023-02-15 22:45:41 UTC,P,,,2012-01-31,,,,,J1772,US,,,,Public - Appeler à l'avance,,public,CALL,,CAR_DEALER,,,,,,,Free,,,,,,,,,,false,,,,,,,,
ELEC,Route 23 Nissan,1301 Route 23,,Butler,NJ,07405,,973-838-0800,E,,Private,,,,,,,1,,,Non-Networked,,200-9,40.991256,-74.347338,2020-06-09,45667,2023-02-15 22:45:41 UTC,P,,,2012-01-31,,,,,J1772,US,,,,Privé,,private,,,CAR_DEALER,,,,,,,,,,,,,,,,,,,,,,,,,
ELEC,Cherry Hill Nissan,2325 Route 38,At intersection of Route 38 and Church Road.,Cherry Hill,NJ,08002,,856-667-8300,E,,Public - Call ahead,Dealership business hours,,,,,,1,,,Non-Networked,,200-9,39.939502,-75.011984,2020-06-09,45668,2023-02-15 22:45:41 UTC,P,,,2012-01-31,,,,,J1772,US,,,,Public - Appeler à l'avance,,public,CALL,,CAR_DEALER,,,,,,,Free,,,,,,,,,,false,,,,,,,,
ELEC,Cherry Hill Nissan,2325 Route 38,At intersection of Route 38 and Church Road.,Cherry Hill,NJ,08002,,856-667-8300,E,,Private,,,,,,,1,,,Non-Networked,,200-9,39.939502,-75.011984,2020-06-09,45669,2023-02-15 22:45:41 UTC,P,,,2012-01-31,,,,,J1772,US,,,,Privé,,private,,,CAR_DEALER,,,,,,,,,,,,,,,,,,,,,,,,,
ELEC,Hilltop Nissan,258 Route 10,,East Hanover,NJ,07936,,973-887-5400,E,,Public - Call ahead,Dealership business hours,,,,,,1,,,Non-Networked,,200-9,40.807195,-74.371329,2020-06-09,45670,2021-03-11 23:22:17 UTC,P,,,2012-01-31,,,,,J1772,US,,,,Public - Appeler à l'avance,,public,CALL,,CAR_DEALER,,,,,,,Free,,,,,,,,,,false,,,,,,,,
ELEC,Fred Beans Nissan - Flemington,172 US Highway 202,,Flemington,NJ,08822,,908-333-4556,E,,Public - Call ahead,Dealership business hours,,,,,,2,,,Non-Networked,,GPS,40.48774,-74.86328,2020-06-09,45672,2023-02-15 22:45:41 UTC,P,,,2012-01-31,,,,,J1772,US,,,,Public - Appeler à l'avance,,public,CALL,,CAR_DEALER,,,,,,,Free,,,,,,,,,,false,,,,,,,,
ELEC,Fred Beans Nissan - Flemington,172 US Highway 202,,Flemington,NJ,08822,,908-333-4556,E,,Private,,,,,,,1,,,Non-Networked,,GPS,40.48774,-74.86328,2020-06-09,45673,2023-02-15 22:45:41 UTC,P,,,2012-01-31,,,,,J1772,US,,,,Privé,,private,,,CAR_DEALER,,,,,,,,,,,,,,,,,,,,,,,,,
ELEC,DCH Freehold Nissan,4041 Route 9 N,,Freehold,NJ,07728,,732-780-3600,E,,Public - Call ahead,Dealership business hours,,,,,,1,,,Non-Networked,,200-9,40.263381,-74.292408,2020-06-09,45674,2023-02-15 22:45:41 UTC,P,,,2012-01-31,,,,,J1772,US,,,,Public - Appeler à l'avance,,public,CALL,,CAR_DEALER,,,,,,,Free,,,,,,,,,,false,,,,,,,,
ELEC,DCH Freehold Nissan,4041 Route 9 N,,Freehold,NJ,07728,,732-780-3600,E,,Private,,,,,,,1,,,Non-Networked,,200-9,40.263381,-74.292408,2020-06-09,45675,2023-02-15 22:45:41 UTC,P,,,2012-01-31,,,,,J1772,US,,,,Privé,,private,,,CAR_DEALER,,,,,,,,,,,,,,,,,,,,,,,,,
ELEC,Mt. Holly Nissan,1513 Route 38,,Hainesport,NJ,08036,,609-267-2886,E,,Public - Call ahead,Dealership business hours,,,,,,1,,,Non-Networked,,200-9,39.982438,-74.808764,2020-06-09,45676,2021-03-11 23:22:17 UTC,P,,,2012-01-31,,,,,J1772,US,,,,Public - Appeler à l'avance,,public,CALL,,CAR_DEALER,,,,,,,Free,,,,,,,,,,false,,,,,,,,
ELEC,Route 33 Nissan,951 US Highway 33,,Hamilton Square,NJ,08690,,609-586-1900,E,,Public - Call ahead,Dealership business hours,,,,,,1,,,Non-Networked,,200-9,40.229274,-74.672155,2020-06-09,45678,2021-03-11 23:22:17 UTC,P,,,2012-01-31,,,,,J1772,US,,,,Public - Appeler à l'avance,,public,CALL,,CAR_DEALER,,,,,,,Free,,,,,,,,,,false,,,,,,,,
ELEC,Route 17 Nissan,45 Route 17 S,,Hasbrouck Heights,NJ,07604,,,E,,Public - Call ahead,Dealership business hours; contact 201-796-5050 for more information,,,,,,1,,,Non-Networked,,GPS,40.850992,-74.075092,2020-06-09,45680,2023-02-15 22:45:41 UTC,P,,,2012-01-31,,,,,J1772,US,,,,Public - Appeler à l'avance,,public,CALL,,CAR_DEALER,,,,,,,Free,,,,,,,,,,false,,,,,,,,
ELEC,Route 17 Nissan,45 Route 17 S,,Hasbrouck Heights,NJ,07604,,,E,,Private,,,,,,,1,,,Non-Networked,,GPS,40.850992,-74.075092,2020-06-09,45681,2023-02-15 22:45:41 UTC,P,,,2012-01-31,,,,,J1772,US,,,,Privé,,private,,,CAR_DEALER,,,,,,,,,,,,,,,,,,,,,,,,,
ELEC,Route 22 Nissan,56 Route 22 E,,Hillside,NJ,07205,,908-964-8700,E,,Public - Call ahead,Dealership business hours,,,,,,2,1,,Non-Networked,,GPS,40.696469,-74.219681,2022-03-07,45682,2023-02-14 15:54:11 UTC,P,,,2012-01-31,,,,,CHADEMO J1772 J1772COMBO,US,,,,Public - Appeler à l'avance,,public,CALL,,CAR_DEALER,,,,,,,Free,,,,,,,,,,false,,,,,,,,LD
ELEC,Pine Belt Nissan - Keyport,111 State Route 36,,Keyport,NJ,07735,,732-264-4333,E,,Public - Call ahead,Dealership business hours,,,,,,1,,,Non-Networked,,200-8,40.42832,-74.192387,2020-06-09,45684,2023-02-15 22:45:41 UTC,P,,,2012-01-31,,,,,J1772,US,,,,Public - Appeler à l'avance,,public,CALL,,CAR_DEALER,,,,,,,Free,,,,,,,,,,false,,,,,,,,
ELEC,Pine Belt Nissan - Keyport,111 State Route 36,,Keyport,NJ,07735,,732-264-4333,E,,Private,,,,,,,1,,,Non-Networked,,200-8,40.42832,-74.192387,2020-06-09,45685,2023-02-15 22:45:41 UTC,P,,,2012-01-31,,,,,J1772,US,,,,Privé,,private,,,CAR_DEALER,,,,,,,,,,,,,,,,,,,,,,,,,
ELEC,Causeway Nissan,435 Route 72 W,,Manahawkin,NJ,08050,,609-978-6700,E,,Public - Call ahead,Dealership business hours,,,,,,1,,,Non-Networked,,200-9,39.701442,-74.271282,2020-06-09,45686,2021-03-11 23:22:17 UTC,P,,,2012-01-31,,,,,J1772,US,,,,Public - Appeler à l'avance,,public,CALL,,CAR_DEALER,,,,,,,Free,,,,,,,,,,false,,,,,,,,
ELEC,Acme Nissan,2050 US Highway 130,,South Brunswick,NJ,08852,,732-821-9300,E,,Public - Call ahead,Dealership business hours,,,,,,1,1,,Non-Networked,,GPS,40.40938,-74.506017,2022-03-07,45688,2023-02-14 15:54:11 UTC,P,,,2012-01-31,,,,,CHADEMO J1772 J1772COMBO,US,,,,Public - Appeler à l'avance,,public,CALL,,CAR_DEALER,,,,,,,Free,,,,,,,,,,false,,,,,,,,LD
ELEC,Acme Nissan,2050 US Highway 130,,South Brunswick,NJ,08852,,732-821-9300,E,,Private,,,,,,,1,,,Non-Networked,,GPS,40.40938,-74.506017,2022-03-07,45689,2023-02-14 15:54:11 UTC,P,,,2012-01-31,,,,,J1772,US,,,,Privé,,private,,,CAR_DEALER,,,,,,,,,,,,,,,,,,,,,,,,,LD
ELEC,Sansone Jr's 66 Nissan,3401 Route 66,,Neptune,NJ,07753,,732-922-1050,E,,Public - Call ahead,Dealership business hours,,,,,,1,,,Non-Networked,,200-9,40.228608,-74.068718,2020-06-09,45690,2023-02-15 22:45:41 UTC,P,,,2012-01-31,,,,,J1772,US,,,,Public - Appeler à l'avance,,public,CALL,,CAR_DEALER,,,,,,,Free,,,,,,,,,,false,,,,,,,,
ELEC,Sansone Jr's 66 Nissan,3401 Route 66,,Neptune,NJ,07753,,732-922-1050,E,,Private,,,,,,,1,,,Non-Networked,,200-9,40.228608,-74.068718,2020-06-09,45691,2023-02-15 22:45:41 UTC,P,,,2012-01-31,,,,,J1772,US,,,,Privé,,private,,,CAR_DEALER,,,,,,,,,,,,,,,,,,,,,,,,,
ELEC,North Plainfield Nissan,545 Route 22 W,,North Plainfield,NJ,07060,,,E,,Public - Call ahead,Dealership business hours; contact 908-755-6400 for more information,,,,,,1,1,,Non-Networked,,GPS,40.630184,-74.433373,2022-03-07,45692,2023-02-14 15:54:11 UTC,P,,,2012-01-31,,,,,CHADEMO J1772,US,,,,Public - Appeler à l'avance,,public,CALL,,CAR_DEALER,,,,,,,Free,,,,,,,,,,false,,,,,,,,LD
ELEC,North Plainfield Nissan,545 Route 22 W,,North Plainfield,NJ,07060,,,E,,Private,,,,,,,1,,,Non-Networked,,GPS,40.630184,-74.433373,2022-03-07,45693,2023-02-14 15:54:11 UTC,P,,,2012-01-31,,,,,J1772,US,,,,Privé,,private,,,CAR_DEALER,,,,,,,,,,,,,,,,,,,,,,,,,LD
ELEC,Nissan of Stanhope,59 Route 206,,Stanhope,NJ,07874,,973-347-2200,E,,Public - Call ahead,Dealership business hours,,,,,,1,,,Non-Networked,,200-9,40.929732,-74.71888,2020-06-09,45694,2023-02-15 22:45:41 UTC,P,,,2012-01-31,,,,,J1772,US,,,,Public - Appeler à l'avance,,public,CALL,,CAR_DEALER,,,,,,,Free,,,,,,,,,,false,,,,,,,,
ELEC,Nissan of Stanhope,59 Route 206,,Stanhope,NJ,07874,,973-347-2200,E,,Private,,,,,,,1,,,Non-Networked,,200-9,40.929732,-74.71888,2020-06-09,45695,2023-02-15 22:45:41 UTC,P,,,2012-01-31,,,,,J1772,US,,,,Privé,,private,,,CAR_DEALER,,,,,,,,,,,,,,,,,,,,,,,,,
ELEC,Pine Belt Automotive,229 Route 37 E,,Toms River,NJ,08753,,732-349-3030,E,,Public - Call ahead,Dealership business hours,,,,,,1,,,Non-Networked,,200-9,39.961373,-74.180868,2020-06-09,45696,2023-02-15 22:45:41 UTC,P,,,2012-01-31,,,,,J1772,US,,,,Public - Appeler à l'avance,,public,CALL,,CAR_DEALER,,,,,,,Free,,,,,,,,,,false,,,,,,,,
ELEC,Pine Belt Automotive,229 Route 37 E,,Toms River,NJ,08753,,732-349-3030,E,,Private,,,,,,,1,,,Non-Networked,,200-9,39.961373,-74.180868,2020-06-09,45697,2023-02-15 22:45:41 UTC,P,,,2012-01-31,,,,,J1772,US,,,,Privé,,private,,,CAR_DEALER,,,,,,,,,,,,,,,,,,,,,,,,,
ELEC,Nissan 46,440 Route 46,,Totowa,NJ,07512,,973-256-1200,E,,Public - Call ahead,Dealership business hours,,,,,,1,1,,Non-Networked,,200-8,40.894133,-74.232511,2022-03-07,45698,2023-02-14 15:54:11 UTC,P,,,2012-01-31,,,,,CHADEMO J1772 J1772COMBO,US,,,,Public - Appeler à l'avance,,public,CALL,,CAR_DEALER,,,,,,,Free,,,,,,,,,,false,,,,,,,,LD
ELEC,Nissan 46,440 Route 46,,Totowa,NJ,07512,,973-256-1200,E,,Private,,,,,,,1,,,Non-Networked,,200-8,40.894133,-74.232511,2022-03-07,45699,2023-02-14 15:54:11 UTC,P,,,2012-01-31,,,,,J1772,US,,,,Privé,,private,,,CAR_DEALER,,,,,,,,,,,,,,,,,,,,,,,,,LD
ELEC,Ramsey Nissan,401 Route 17 S,,Upper Saddle River,NJ,07458,,,E,,Public - Call ahead,Dealership business hours; contact 201-825-4040 for more information,,,,,,2,1,,Non-Networked,,GPS,41.053216,-74.120288,2022-03-07,45700,2023-02-14 15:54:11 UTC,P,,,2012-01-31,,,,,CHADEMO J1772 J1772COMBO,US,,,,Public - Appeler à l'avance,,public,CALL,,CAR_DEALER,,,,,,,Free,,,,,,,,,,false,,,,,,,,LD
ELEC,Ramsey Nissan,401 Route 17 S,,Upper Saddle River,NJ,07458,,,E,,Private,,,,,,,1,,,Non-Networked,,GPS,41.053216,-74.120288,2022-03-07,45701,2023-02-14 15:54:11 UTC,P,,,2012-01-31,,,,,J1772,US,,,,Privé,,private,,,CAR_DEALER,,,,,,,,,,,,,,,,,,,,,,,,,LD
ELEC,Team Nissan,1715 S Delsea Dr,,Vineland,NJ,08360,,856-696-2277,E,,Public - Call ahead,Dealership business hours,,,,,,1,,,Non-Networked,,200-9,39.462013,-75.043179,2020-06-09,45702,2023-02-15 22:45:41 UTC,P,,,2012-01-31,,,,,J1772,US,,,,Public - Appeler à l'avance,,public,CALL,,CAR_DEALER,,,,,,,Free,,,,,,,,,,false,,,,,,,,
ELEC,Team Nissan,1715 S Delsea Dr,,Vineland,NJ,08360,,856-696-2277,E,,Private,,,,,,,1,,,Non-Networked,,200-9,39.462013,-75.043179,2020-06-09,45703,2023-02-15 22:45:41 UTC,P,,,2012-01-31,,,,,J1772,US,,,,Privé,,private,,,CAR_DEALER,,,,,,,,,,,,,,,,,,,,,,,,,
ELEC,Woodbury Nissan,439 Mantua Ave,,Woodbury,NJ,08096,,856-853-0150,E,,Public - Call ahead,Dealership business hours,,,,,,3,,,Non-Networked,,GPS,39.83206,-75.1581,2020-06-09,45704,2023-02-15 22:45:41 UTC,P,,,2012-01-31,,,,,J1772,US,,,,Public - Appeler à l'avance,,public,CALL,,CAR_DEALER,,,,,,,Free,,,,,,,,,,false,,,,,,,,
ELEC,Woodbury Nissan,439 Mantua Ave,,Woodbury,NJ,08096,,856-853-0150,E,,Private,,,,,,,1,,,Non-Networked,,GPS,39.83206,-75.1581,2020-06-09,45705,2023-02-15 22:45:41 UTC,P,,,2012-01-31,,,,,J1772,US,,,,Privé,,private,,,CAR_DEALER,,,,,,,,,,,,,,,,,,,,,,,,,
CNG,South Jersey Gas,1211 N 2nd St,,Millville,NJ,08332,,800-716-5550,E,,Public - Credit card at all times,24 hours daily,A D M V Voyager Wright_Exp,,Q,3600,,,,,,,200-9,39.411625,-75.03746,2022-12-13,47288,2023-09-25 15:01:25 UTC,T,,,2013-04-30,,HD,,,,US,,,,Public - Carte de crédit en tout temps,,public,CREDIT_CARD_ALWAYS,,UTILITY,2,LANDFILL,1000,,,,,,,,,Q,3600,HD,,,false,,,,,,true,,HD
ELEC,Atlantic County Utilities Authority,6700 Delilah Rd,,Egg Harbor Township,NJ,08234,,609-272-6950,E,,Public - Call ahead,"7am-5pm M-F, 7am-12pm Sat",,,,,,4,,,Non-Networked,,GPS,39.417467,-74.53968,2021-10-12,48406,2022-02-10 19:42:29 UTC,P,,,2012-04-01,,,,,J1772,US,,,,Public - Appeler à l'avance,,public,CALL,,UTILITY,,,,,,,Free,,,,,,,,,,false,,,,,,,,LD
ELEC,Firehouse Lot 3,1st St & Sloan St,In the back of the firehouse,South Orange,NJ,07079,,973-378-7715 x2037,E,,Public,6am-11pm daily; Drivers must bring their own J1772 cordset for Level 1 charging,,,,,3,3,,,Non-Networked,,GPS,40.745046,-74.26042,2022-11-10,49035,2023-02-14 15:54:11 UTC,P,,,2012-09-15,,,,,J1772 NEMA520,US,,,,Public,,public,,,PAY_LOT,,,,,,,Free; pay lot,,,,,,,,,,false,,,,,,,,LD
ELEC,Sansone Nissan,90-100 US Route 1,,Avenel,NJ,07001,,888-250-5514,E,,Public - Call ahead,Dealership business hours,,,,,,1,,,Non-Networked,,200-8,40.573827,-74.290584,2020-06-09,49898,2021-03-11 23:22:17 UTC,P,,,2012-10-25,,,,,J1772,US,,,,Public - Appeler à l'avance,,public,CALL,,CAR_DEALER,,,,,,,Free,,,,,,,,,,false,,,,,,,,
ELEC,Bridgewater Nissan,1400 Route 22,,Bridgewater,NJ,08807,,,E,,Public - Call ahead,Dealership business hours; contact 908-722-3600 for more information,,,,,,2,1,,Non-Networked,,GPS,40.575337,-74.571677,2022-03-07,49900,2023-02-14 15:54:11 UTC,P,,,2012-10-25,,,,,CHADEMO J1772 J1772COMBO,US,,,,Public - Appeler à l'avance,,public,CALL,,CAR_DEALER,,,,,,,Free,,,,,,,,,,false,,,,,,,,LD
ELEC,Bridgewater Nissan,1400 Route 22,,Bridgewater,NJ,08807,,,E,,Private,,,,,,,1,,,Non-Networked,,GPS,40.575337,-74.571677,2022-03-07,49901,2023-02-14 15:54:11 UTC,P,,,2012-10-25,,,,,J1772,US,,,,Privé,,private,,,CAR_DEALER,,,,,,,,,,,,,,,,,,,,,,,,,LD
ELEC,Nissan World of Denville,3057 Route 10,,Denville,NJ,07834,,973-442-0500,E,,Public - Call ahead,Dealership business hours,,,,,,1,1,,Non-Networked,,200-9,40.864552,-74.50632,2022-03-07,49902,2023-02-14 15:54:11 UTC,P,,,2012-10-25,,,,,CHADEMO J1772 J1772COMBO,US,,,,Public - Appeler à l'avance,,public,CALL,,CAR_DEALER,,,,,,,Free,,,,,,,,,,false,,,,,,,,LD
ELEC,Nissan World of Denville,3057 Route 10,,Denville,NJ,07834,,973-442-0500,E,,Private,,,,,,,1,,,Non-Networked,,200-9,40.864552,-74.50632,2022-03-07,49903,2023-02-14 15:54:11 UTC,P,,,2012-10-25,,,,,J1772,US,,,,Privé,,private,,,CAR_DEALER,,,,,,,,,,,,,,,,,,,,,,,,,LD
ELEC,Hudson Nissan,585 State Route 440,,Jersey City,NJ,07304,,201-435-2003,E,,Public - Call ahead,Dealership business hours,,,,,,1,,,Non-Networked,,GPS,40.71696,-74.09634,2020-06-09,49905,2023-02-15 22:45:41 UTC,P,,,2012-10-25,,,,,J1772,US,,,,Public - Appeler à l'avance,,public,CALL,,CAR_DEALER,,,,,,,Free,,,,,,,,,,false,,,,,,,,
ELEC,Hudson Nissan,585 State Route 440,,Jersey City,NJ,07304,,201-435-2003,E,,Private,,,,,,,1,,,Non-Networked,,GPS,40.71696,-74.09634,2020-06-09,49906,2023-02-15 22:45:41 UTC,P,,,2012-10-25,,,,,J1772,US,,,,Privé,,private,,,CAR_DEALER,,,,,,,,,,,,,,,,,,,,,,,,,
ELEC,Nissan City of Red Bank,120 Newman Springs Rd E,,Red Bank,NJ,07701,,732-741-2433,E,,Public - Call ahead,Dealership business hours,,,,,,1,2,,Non-Networked,,200-9,40.338246,-74.068682,2022-03-07,49907,2023-02-14 15:54:11 UTC,P,,,2012-10-25,,,,,CHADEMO J1772 J1772COMBO,US,,,,Public - Appeler à l'avance,,public,CALL,,CAR_DEALER,,,,,,,Free,,,,,,,,,,false,,,,,,,,LD
ELEC,Nissan City of Red Bank,120 Newman Springs Rd E,,Red Bank,NJ,07701,,732-741-2433,E,,Private,,,,,,,1,,,Non-Networked,,200-9,40.338246,-74.068682,2022-03-07,49909,2023-02-14 15:54:11 UTC,P,,,2012-10-25,,,,,J1772,US,,,,Privé,,private,,,CAR_DEALER,,,,,,,,,,,,,,,,,,,,,,,,,LD
ELEC,Nissan World of Springfield,146-162 Route 22 W,,Springfield,NJ,07081,,973-376-8821,E,,Public - Call ahead,Dealership business hours,,,,,,1,1,,Non-Networked,,200-9,40.687162,-74.31859,2022-03-07,49910,2023-02-14 15:54:11 UTC,P,,,2012-10-25,,,,,CHADEMO J1772 J1772COMBO,US,,,,Public - Appeler à l'avance,,public,CALL,,CAR_DEALER,,,,,,,Free,,,,,,,,,,false,,,,,,,,LD
ELEC,Nissan World of Springfield,146-162 Route 22 W,,Springfield,NJ,07081,,973-376-8821,E,,Private,,,,,,,1,,,Non-Networked,,200-9,40.687162,-74.31859,2022-03-07,49911,2023-02-14 15:54:11 UTC,P,,,2012-10-25,,,,,J1772,US,,,,Privé,,private,,,CAR_DEALER,,,,,,,,,,,,,,,,,,,,,,,,,LD
ELEC,Nissan of Turnersville,3400 Route 42,,Turnersville,NJ,08012,,856-629-1900,E,,Public - Call ahead,Dealership business hours,,,,,,1,1,,Non-Networked,,200-8,39.727845,-75.031104,2022-03-07,49912,2023-02-14 15:54:11 UTC,P,,,2012-10-25,,,,,CHADEMO J1772,US,,,,Public - Appeler à l'avance,,public,CALL,,CAR_DEALER,,,,,,,Free,,,,,,,,,,false,,,,,,,,LD
ELEC,Nissan of Turnersville,3400 Route 42,,Turnersville,NJ,08012,,856-629-1900,E,,Private,,,,,,,2,,,Non-Networked,,200-8,39.727845,-75.031104,2022-03-07,49913,2023-02-14 15:54:11 UTC,P,,,2012-10-25,,,,,J1772,US,,,,Privé,,private,,,CAR_DEALER,,,,,,,,,,,,,,,,,,,,,,,,,LD
CNG,South Jersey Gas - Lindenwold,2500 Old Egg Harbor Rd,,Lindenwold,NJ,08021,,866-278-3674,E,,Public - Credit card at all times,24 hours daily,A CleanEnergy D M V Voyager Wright_Exp,,B,3600,,,,,,,200-9,39.811305,-74.96135,2022-12-13,50049,2023-09-25 15:01:25 UTC,T,,,2014-09-01,,HD,,,,US,,,,Public - Carte de crédit en tout temps,,public,CREDIT_CARD_ALWAYS,,FLEET_GARAGE,2,LANDFILL,1000,,,,,,,,,B,3600,HD,,,false,,,,,,true,,HD
CNG,Waste Management - Trenton Hauling,208 Patterson Ave,,Hamilton Township,NJ,08610,,,E,,Private,,,,T,3600,,,,,,,200-8,40.213062,-74.715814,2022-06-14,50265,2023-07-16 17:54:39 UTC,P,,,2014-06-16,,HD,,,,US,,,,Privé,,private,,,FLEET_GARAGE,,,,,,,,,,,,T,3600,HD,,,,,,,,,,,HD
ELEC,George Wall Ford Lincoln,700 Shrewsbury Ave,,Red Bank,NJ,07701,,732-747-5400,E,,Public - Call ahead,Dealership business hours,,,,,,1,,,Non-Networked,,200-9,40.324267,-74.073959,2023-01-10,52006,2023-02-14 15:54:11 UTC,P,,,2013-04-15,,,,,J1772,US,,,,Public - Appeler à l'avance,,public,CALL,,CAR_DEALER,,,,,,,Free,,,,,,,,,,false,,,,,,,,LD
ELEC,Larson Ford,1150 Ocean Ave,,Lakewood,NJ,08701,,,E,,Private,Service center and customer use only,,,,,,2,,,Non-Networked,,200-9,40.082323,-74.172823,2022-01-10,53889,2023-02-15 22:45:41 UTC,P,,,2013-04-01,,,,,J1772,US,,,,Privé,,private,,,CAR_DEALER,,,,,,,Free,,,,,,,,,,,,,,,,,,
CNG,South Jersey Gas - Lindenwold,2500 Old Egg Harbor Rd,,Lindenwold,NJ,08021,,866-278-3674,E,,Private,,,,B,3600,,,,,,,200-9,39.811305,-74.96135,2022-12-13,60167,2023-09-25 15:01:25 UTC,T,,,2014-09-01,,HD,,,,US,,,,Privé,,private,,,FLEET_GARAGE,,LANDFILL,,,,,,,,,,B,3600,HD,,,,,,,,,true,,HD
CNG,New Jersey Natural Gas - Middletown Public Works,54 Kanes Ln,Off Route 35 N at Middletown Public Works,Middletown,NJ,07748,,732-919-8000,E,,Public - Credit card at all times,24 hours daily,D M V Wright_Exp,,Q,3600,,,,,,,200-9,40.387923,-74.085991,2022-10-11,60682,2023-09-25 14:53:41 UTC,T,,,2016-02-15,,HD,,,,US,,,,Public - Carte de crédit en tout temps,,public,CREDIT_CARD_ALWAYS,,STANDALONE_STATION,2,,950,37071,,,,,,,,Q,3600,HD,,,false,,,,,,false,,HD
CNG,New Jersey Natural Gas - Middletown Public Works,54 Kanes Ln,Off Route 35 N at Middletown Public Works,Middletown,NJ,07748,,732-919-8000,E,,Private,,,,T,3600,,,,,,,200-9,40.387923,-74.085991,2022-10-11,60683,2023-09-25 14:53:41 UTC,T,,,2016-02-15,,HD,,,,US,,,,Privé,,private,,,STANDALONE_STATION,,,,,,,,,,,,T,3600,HD,,,,,,,,,false,,HD
CNG,New Jersey Natural Gas - Shore Point Distributing Co,850 Route 33 Business,At the corner of Route 33 and Halls Mills Rd,Freehold,NJ,07728,,732-919-8000,E,,Public - Credit card at all times,24 hours daily,D M V Wright_Exp,,Q,3600,,,,,,,GPS,40.247319,-74.24322,2022-10-11,60684,2023-09-25 14:53:41 UTC,T,,,2015-09-29,,HD,,,,US,,,,Public - Carte de crédit en tout temps,,public,CREDIT_CARD_ALWAYS,,STANDALONE_STATION,4,,950,37071,,,,,,,,Q,3600,HD,,,false,,,,,,false,,HD
CNG,New Jersey Natural Gas - Waste Management,1298 Industrial Way,Off Route 37 W,Toms River,NJ,08755,,,E,,Public - Credit card at all times,24 hours daily,D M V Wright_Exp,,Q,3600,,,,,,,200-9,39.989815,-74.258336,2022-06-14,60685,2023-07-16 17:54:39 UTC,T,,,2015-09-24,,HD,,,,US,,,,Public - Carte de crédit en tout temps,,public,CREDIT_CARD_ALWAYS,,STANDALONE_STATION,2,,950,37071,,,,,,,,Q,3600,HD,,,false,,,,,,false,,HD
ELEC,CIRCLE BMW STATION 01,500 NJ-36 500 State Route 36,,Eatontown,NJ,07724,,888-758-4389,E,,Public,24 hours daily,,,,,,2,,,ChargePoint Network,http://www.chargepoint.com/,GPS,40.290139,-74.041359,2023-09-26,60922,2023-09-26 00:10:32 UTC,,,,2014-03-28,,,,,J1772,US,,,,Public,,public,,,,,,,,,,,,,,,,,,,,,,,,,,,,
ELEC,BMW SPRINGFIELD STATION 01,391-US-22 east located on east side of front,,Springfield Township,NJ,07081,,888-758-4389,E,,Public,24 hours daily,,,,,,1,,,ChargePoint Network,http://www.chargepoint.com/,GPS,40.684542,-74.333898,2023-09-26,61419,2023-09-26 00:10:35 UTC,,,,2014-04-22,,,,,J1772,US,,,,Public,,public,,,,,,,,,,,,,,,,,,,,,,,,,,,,
ELEC,Brassworks on Grove,105 Grove St,,Montclair,NJ,07042,,,E,,Private,Tenant use only,,,,,,1,,,Non-Networked,,200-9,40.814101,-74.2078,2023-02-13,61719,2023-09-25 15:17:02 UTC,P,,,2007-01-15,,,,,J1772,US,,,,Privé,,private,,,OFFICE_BLDG,,,,,,,Free,,,,,,,,,,,,,,,,,,LD
CNG,Elizabethtown Gas,520 Green Ln,,Union,NJ,07083,,800-716-5550,E,,Public - Credit card at all times,"24 hours daily; station can accommodate tractors, but there is limited capacity for trailers due to the tight turning radius, so drivers encouraged to contact station ahead of time",A D M V Voyager Wright_Exp,,Q,3600,,,,,,,200-9,40.676438,-74.248373,2022-12-13,61897,2023-09-25 15:01:25 UTC,T,,,2014-10-15,,HD,,,,US,,,,Public - Carte de crédit en tout temps,,public,CREDIT_CARD_ALWAYS,,UTILITY,2,,1000,,,,,,,,,Q,3600,HD,,,false,,,,,,false,,HD
ELEC,ATLANTIC CITY STATION 01,6037 Black Horse Pike,,Egg Harbor Township,NJ,08234,,888-758-4389,E,,Public,24 hours daily,,,,,,1,,,ChargePoint Network,http://www.chargepoint.com/,GPS,39.435912,-74.613812,2023-09-26,62427,2023-09-26 00:10:35 UTC,,,,2014-07-11,,,,,J1772,US,,,,Public,,public,,,,,,,,,,,,,,,,,,,,,,,,,,,,
ELEC,Kindle Auto Plaza,525 Stone Harbor Blvd,,Cape May,NJ,08210,,,E,,Private,Dealership business hours; Drivers must bring their own J1772 cordset for Level 1 charging,,,,,2,2,,,Non-Networked,,200-9,39.082387,-74.811638,2022-11-10,63619,2023-02-15 22:45:41 UTC,P,,,2012-10-01,,,,,J1772 NEMA520,US,,,,Privé,,private,,,CAR_DEALER,,,,,,,Free,,,,,,,,,,,,,,,,,,LD
CNG,Waste Management - Camden,1001 Fairview St,,Camden,NJ,08104,,,E,,Private,,,,T,3600,,,,,,,200-8,39.914001,-75.108896,2022-06-14,63975,2023-07-16 17:54:39 UTC,P,,,2011-06-08,,HD,,,,US,,,,Privé,,private,,,FLEET_GARAGE,,,,,,,,,,,,T,3600,HD,,,,,,,,,,,HD
CNG,New Jersey Natural Gas - Waste Management,1298 Industrial Way,Off Route 37 W,Toms River,NJ,08755,,,E,,Private,,,,T,3600,,,,,,,200-9,39.989815,-74.258336,2022-06-14,63995,2023-07-16 17:54:39 UTC,T,,,2015-09-24,,HD,,,,US,,,,Privé,,private,,,STANDALONE_STATION,,,,,,,,,,,,T,3600,HD,,,,,,,,,false,,HD
ELEC,HAMILTON VW VW_408258_A,2200 NJ-33,,Trenton,NJ,08690,,888-758-4389,E,,Public,24 hours daily,,,,,,2,,,ChargePoint Network,http://www.chargepoint.com/,GPS,40.222952,-74.643819,2023-09-26,64192,2023-09-26 00:11:47 UTC,,,,2014-11-14,,,,,J1772,US,,,,Public,,public,,,,,,,,,,,,,,,,,,,,,,,,,,,,
ELEC,HMC 1 HMC1,2100 Wescott Dr,,Flemington,NJ,08822,,888-758-4389,E,,Public,24 hours daily,,,,,,2,,,ChargePoint Network,http://www.chargepoint.com/,GPS,40.532779,-74.861809,2023-09-26,64754,2023-09-26 00:12:30 UTC,,,,2014-12-13,,,,,J1772,US,,,,Public,,public,,,,,,,,,,,,,,,,,,,,,,,,,,,,
ELEC,Station Plaza Parking Garage,50 Yard Ave,Located on the roof of the garage,Trenton,NJ,08609,,609-599-9614,E,,Public,24 hours daily; Drivers must bring their own J1772 cordset for Level 1 charging,,,,,7,,,,Non-Networked,,200-8,40.219983,-74.754838,2021-10-12,65409,2022-02-10 21:00:18 UTC,P,,,2014-12-01,,,,,NEMA520,US,,,,Public,,public,,,PAY_GARAGE,,,,,,,Free,,,,,,,,,,false,,,,,,,,LD
CNG,South Jersey Gas - Wawa #8305,51 Berkeley Rd,Berkeley Rd and I-295,Paulsboro,NJ,08066,,856-423-2395,E,,Public - Credit card at all times,24 hours daily,A D M V Voyager Wright_Exp,,Q,3600,,,,,,,200-9,39.821725,-75.240765,2022-12-13,65547,2023-09-25 15:01:25 UTC,T,,,2016-03-07,,HD,,,,US,,,,Public - Carte de crédit en tout temps,,public,CREDIT_CARD_ALWAYS,,CONVENIENCE_STORE,2,,500,,,,,,,,,Q,3600,HD,,,false,,,,,,false,,HD
ELEC,New Brunswick Parking Authority,7 Wall St,"Gateway Garage, located on the 2nd floor",New Brunswick,NJ,08901,,732-545-3118  732-236-7546,E,,Public,Restricted to garage hours; pay lot,,,,,,5,,,Non-Networked,,GPS,40.496879,-74.446529,2021-10-12,65670,2022-02-10 19:42:29 UTC,P,,,2013-04-30,,,,,J1772,US,,,,Public,,public,,,PAY_GARAGE,,,,,,,Free,,,,,,,,,,false,,,,,,,,LD
ELEC,New Brunswick Parking Authority,95 Patterson St,Wellness Deck Garage located on the corner of 100 Kirkpatrick and Church Street. Located on the 5th and 6th floors,New Brunswick,NJ,08901,,732-545-3118,E,,Public,Restricted to garage hours; pay lot,,,,,,5,,,Non-Networked,,200-8,40.494646,-74.447516,2021-10-12,65671,2022-02-10 19:42:29 UTC,P,,,2013-04-30,,,,,J1772,US,,,,Public,,public,,,PAY_GARAGE,,,,,,,Free,,,,,,,,,,false,,,,,,,,LD
ELEC,FLKS CAMPUS STATION 01,1 Becton Dr,,Franklin Lakes,NJ,07417,,888-758-4389,E,,Public,24 hours daily,,,,,,2,,,ChargePoint Network,http://www.chargepoint.com/,GPS,41.016356,-74.211628,2023-09-26,67043,2023-09-26 00:14:07 UTC,,,,2015-05-07,,,,,J1772,US,,,,Public,,public,,,,,,,,,,,,,,,,,,,,,,,,,,,,
LPG,U-Haul,2101 US Highway 130 S,,Cinnaminson,NJ,08077,,856-829-0018,E,,Public,"7am-7pm M-Th and Sat, 7am-8pm F, 9am-5pm Sun",A Cash D M V,,,,,,,,,,200-9,40.00532,-74.98071,2023-02-13,68074,2023-02-14 15:54:11 UTC,P,,,2015-06-25,,,true,,,US,,,,Public,,public,,,RENTAL_CAR_RETURN,,,,,,,,,"[""ACME"", ""QUICK_CONNECT""]",,,,,,,,false,,,,,,,,HD
LPG,U-Haul,1 White Horse Pike,,Absecon,NJ,08201,,609-646-6131,E,,Public,"7am-7pm M-Th and Sat, 7am-8pm F, 9am-5pm Sun",A Cash D M V,,,,,,,,,,200-9,39.423186,-74.500341,2023-02-13,68075,2023-02-14 15:54:11 UTC,P,,,2015-06-25,,,true,,,US,,,,Public,,public,,,RENTAL_CAR_RETURN,,,,,,,,,"[""QUICK_CONNECT"", ""ACME""]",,,,,,,,false,,,,,,,,
LPG,U-Haul,411 White Horse Pike,,Somerdale,NJ,08083,,856-346-3500,E,,Public,"7am-7pm M-Th and Sat, 7am-8pm F, 9am-5pm Sun",A Cash D M V,,,,,,,,,,200-8,39.853035,-75.02543,2023-02-13,68076,2023-02-14 15:54:11 UTC,P,,,2015-06-25,,,false,,,US,,,,Public,,public,,,RENTAL_CAR_RETURN,,,,,,,,,"[""ACME"", ""QUICK_CONNECT""]",,,,,,,,false,,,,,,,,HD
LPG,U-Haul,1201 Hurffville Rd,,Deptford,NJ,08096,,856-228-5950,E,,Public,"7am-7pm M-Th and Sat, 7am-8pm F, 9am-5pm Sun",A Cash D M V,,,,,,,,,,200-9,39.830015,-75.088865,2023-02-13,68077,2023-02-14 15:54:11 UTC,P,,,2015-06-25,,,false,,,US,,,,Public,,public,,,RENTAL_CAR_RETURN,,,,,,,,,,,,,,,,,false,,,,,,,,
LPG,U-Haul,3609 Route 38,,Mount Laurel,NJ,08054,,856-234-9044,E,,Public,"7am-7pm M-Th and Sat, 7am-8pm F, 9am-5pm Sun",A Cash D M V,,,,,,,,,,200-9,39.965953,-74.921214,2023-02-13,68078,2023-02-14 15:54:11 UTC,P,,,2015-06-25,,,true,,,US,,,,Public,,public,,,RENTAL_CAR_RETURN,,,,,,,,,"[""ACME"", ""QUICK_CONNECT""]",,,,,,,,false,,,,,,,,HD
LPG,U-Haul,474 Brunswick Ave,,Trenton,NJ,08638,,609-989-9100,E,,Public,"7am-7pm M-Th and Sat, 7am-8pm F, 9am-5pm Sun",A Cash D M V,,,,,,,,,,200-9,40.230817,-74.755925,2023-02-13,68079,2023-02-14 15:54:11 UTC,P,,,2015-06-25,,,false,,,US,,,,Public,,public,,,RENTAL_CAR_RETURN,,,,,,,,,"[""ACME"", ""QUICK_CONNECT""]",,,,,,,,false,,,,,,,,HD
LPG,U-Haul,1014 State Route 35,,Middletown,NJ,07748,,732-671-1102,E,,Public,"7am-7pm M-Th and Sat, 7am-8pm F, 9am-5pm Sun",A Cash D M V,,,,,,,,,,200-9,40.396236,-74.108034,2023-02-13,68080,2023-02-14 15:54:11 UTC,P,,,2015-06-25,,,true,,,US,,,,Public,,public,,,RENTAL_CAR_RETURN,,,,,,,,,"[""QUICK_CONNECT"", ""ACME""]",,,,,,,,false,,,,,,,,
LPG,U-Haul,2015 US Highway 22 W,,Scotch Plains,NJ,07076,,908-322-4291,E,,Public,"7am-7pm M-Th and Sat, 7am-8pm F, 9am-5pm Sun",A Cash D M V,,,,,,,,,,200-8,40.656882,-74.400244,2023-02-13,68081,2023-02-14 15:54:11 UTC,P,,,2015-06-25,,,true,,,US,,,,Public,,public,,,RENTAL_CAR_RETURN,,,,,,,,,"[""ACME"", ""QUICK_CONNECT""]",,,,,,,,false,,,,,,,,HD
LPG,U-Haul,1275 US Highway 9 N,,Old Bridge,NJ,08857,,732-721-5666,E,,Public,"7am-7pm M-Th and Sat, 7am-8pm F, 9am-5pm Sun",A Cash D M V,,,,,,,,,,GPS,40.441209,-74.2998099,2023-02-13,68082,2023-02-14 15:54:11 UTC,P,,,2015-06-25,,,false,,,US,,,,Public,,public,,,RENTAL_CAR_RETURN,,,,,,,,,"[""ACME"", ""QUICK_CONNECT""]",,,,,,,,false,,,,,,,,HD
ELEC,Nissan of Atlantic City,6021 E Black Horse Pike,,Egg Harbor Township,NJ,08234,,,E,,Private,Service center use only,,,,,,2,,,Non-Networked,,200-8,39.438013,-74.616268,2020-06-09,70450,2023-02-15 22:45:41 UTC,P,,,2014-09-15,,,,,J1772,US,,,,Privé,,private,,,CAR_DEALER,,,,,,,,,,,,,,,,,,,,,,,,,
ELEC,BMW North America,300 Chestnut Ridge Rd,,Woodcliff Lake,NJ,07677,,800-831-1117,E,,Public,24 hours daily,,,,,,,1,,Non-Networked,,GPS,41.0349328,-74.0730244,2022-01-10,74182,2022-02-10 19:42:29 UTC,P,,,2016-01-01,,,,,J1772COMBO,US,,,,Public,,public,,,OFFICE_BLDG,,,,,,,,,,,,,,,,,false,,,,,,,,LD
LPG,Combined Energy Services,430 Route 206,"3 miles south of Newton, NJ",Newton,NJ,07860,,973-786-2121,E,,Public,"7:30am-5:30pm M-F, 8am-12pm Sat",Cash Checks D M V,,,,,,,,,,200-9,41.02487,-74.769287,2023-03-08,74244,2023-03-08 17:16:33 UTC,P,,,2018-07-16,,,true,,,US,,,,Public,,public,,,FUEL_RESELLER,,,,,,,,,"[""ACME"", ""QUICK_CONNECT""]",,,,,,,,false,,,,,,,,HD
ELEC,CHURCH ST LOT CHURCH ST LOT,12 Church Street,,Denville,NJ,07834,,888-758-4389,E,,Public,24 hours daily,,,,,,2,,,ChargePoint Network,http://www.chargepoint.com/,GPS,40.894258,-74.47802,2023-09-26,74693,2023-09-26 00:14:47 UTC,,,,2016-04-02,,,,,J1772,US,,,,Public,,public,,,,,,,,,,,,,,,,,,,,,,,,,,,,
ELEC,STATION ONE STATION ONE,1317 Beach Ave,,Cape May,NJ,08204,,888-758-4389,E,,Public,24 hours daily,,,,,,2,,,ChargePoint Network,http://www.chargepoint.com/,GPS,38.935359,-74.901942,2023-09-26,75111,2023-09-26 00:16:00 UTC,,,,2016-04-19,,,,,J1772,US,,,,Public,,public,,,,,,,,,,,,,,,,,,,,,,,,,,,,
ELEC,Fullerton Parking Deck,20 Park St,,Montclair,NJ,07042,,973-509-5721,E,,Public,24 hours daily,,,,,,2,,,Non-Networked,,200-8,40.815765,-74.218432,2021-12-09,76277,2023-09-25 15:17:02 UTC,LG,,,2020-10-02,,,,,J1772,US,,,,Public,,public,,,PAY_LOT,,,,,,,Free; parking fee,,,,,,,,,,false,,,,,,,,LD
ELEC,Rutgers University - RUNet Field Offices,63 Rd 1,,Piscataway,NJ,08817,,848-932-7744,E,,Public,24 hours daily,,,,,,,1,,Non-Networked,,GPS,40.515163,-74.433665,2021-10-12,76682,2022-02-10 19:42:29 UTC,P,,,2016-02-01,,,,,CHADEMO,US,,,,Public,,public,,,COLLEGE_CAMPUS,,,,,,,Free,,,,,,,,,,false,,,,,,,,LD
ELEC,New Jersey Coalition of Automotive Retailers,856 River Rd,,Trenton,NJ,08628,,609-883-5056,E,,Public,24 hours daily,,,,,,2,1,,Non-Networked,,200-9,40.252324,-74.840182,2021-10-12,76882,2022-02-10 19:42:29 UTC,P,,,2014-06-01,,,,,CHADEMO J1772,US,,,,Public,,public,,,OFFICE_BLDG,,,,,,,,,,,,,,,,,false,,,,,,,,LD
ELEC,Union Volkswagen,2155 US-22,,Union,NJ,07083,,908-398-2436,E,,Public - Call ahead,Dealership business hours; for Volkswagen use only,,,,,,1,,,Non-Networked,,200-9,40.692284,-74.285499,2022-01-10,76928,2022-04-28 20:01:31 UTC,P,,,2016-01-04,,,,,J1772,US,,,,Public - Appeler à l'avance,,public,CALL,,CAR_DEALER,,,,,,,Free,,,,,,,,,,true,,,,,,,,LD
ELEC,Hamilton Stage - Union County Performing Arts Center,360 Hamilton St,,Rahway,NJ,07065,,732-499-8226,E,,Public,24 hours daily,,,,,,2,,,Non-Networked,,GPS,40.611513,-74.280063,2020-06-09,77400,2021-03-11 23:22:17 UTC,LG,,,2016-01-01,,,,,J1772,US,,,,Public,,public,,,OTHER_ENTERTAINMENT,,,,,,,Free,,,,,,,,,,false,,,,,,,,
ELEC,Rahway Parking Lot,67 Lewis St,Located on 1st level,Rahway,NJ,07065,,732-381-8778,E,,Public,8am-7pm daily,,,,,,2,,,Non-Networked,,200-8,40.606383,-74.274701,2021-01-14,77401,2022-12-20 21:38:13 UTC,LG,,,2016-01-01,,,,,J1772,US,,,,Public,,public,,,PARKING_LOT,,,,,,,Free,,,,,,,,,,false,,,,,,,,
ELEC,FLEMINGTON BMW STATION 01,206-228 NJ-31,,Flemington,NJ,08822,,888-758-4389,E,,Public,24 hours daily,,,,,,2,,,ChargePoint Network,http://www.chargepoint.com/,GPS,40.487718,-74.862306,2023-09-26,78768,2023-09-26 00:10:16 UTC,,,,2016-09-27,,,,,J1772,US,,,,Public,,public,,,,,,,,,,,,,,,,,,,,,,,,,,,,
ELEC,PRESTIGE VW. VW_408281_A,4271 E Black Horse Pike,,Washington Township,NJ,08012,,888-758-4389,E,,Public,24 hours daily,,,,,,2,,,ChargePoint Network,http://www.chargepoint.com/,GPS,39.739546,-75.043515,2023-09-26,80128,2023-09-26 00:11:48 UTC,,,,2016-12-10,,,,,J1772,US,,,,Public,,public,,,,,,,,,,,,,,,,,,,,,,,,,,,,
ELEC,Meadows Landmark,201-301 St Route 17 N,,Rutherford,NJ,07070,,,E,,Private,Employee use only,,,,,,2,,,Non-Networked,,GPS,40.818834,-74.100607,2023-01-10,81152,2023-02-15 22:45:41 UTC,P,,,2016-07-15,,,,,J1772,US,,,,Privé,,private,,,OFFICE_BLDG,,,,,,,,,,,,,,,,,,,,,,,,,LD
ELEC,Smith Motor Co,359 NJ-31,,Washington,NJ,07882,,,E,,Private,Service center use only,,,,,,2,,,Non-Networked,,200-9,40.731557,-74.975661,2023-02-13,81600,2023-02-15 22:45:41 UTC,P,,,2017-02-01,,,,,J1772,US,,,,Privé,,private,,,CAR_DEALER,,,,,,,Free,,,,,,,,,,,,,,,,,,
ELEC,Hillside Square,8 Hillside Ave,,Montclair,NJ,07042,,,E,,Private,For tenant use only,,,,,,1,,,Non-Networked,,200-9,40.8147,-74.223698,2023-02-13,81745,2023-09-25 15:17:02 UTC,P,,,2017-03-01,,,,,J1772,US,,,,Privé,,private,,,PARKING_LOT,,,,,,,Free,,,,,,,,,,,,,,,,,,LD
ELEC,Crescent Parking Deck,13 The Crescent,,Montclair,NJ,07042,,973-744-6010,E,,Public,24 hours daily; pay lot,,,,,,2,,,Non-Networked,,200-8,40.812935,-74.218948,2021-12-09,82292,2023-09-25 15:17:02 UTC,P,,,2016-07-01,,,,,J1772,US,,,,Public,,public,,,PAY_GARAGE,,,,,,,Free,,,,,,,,,,false,,,,,,,,LD
ELEC,FRUSCIONE LLC 3500 QBR #1,3500 Quakerbridge Rd,,Hamilton Township,NJ,08619,,888-758-4389,E,,Public,24 hours daily,,,,,,2,,,ChargePoint Network,http://www.chargepoint.com/,GPS,40.256056,-74.681242,2023-09-26,82315,2023-09-26 00:19:21 UTC,,,,2017-04-18,,,,,J1772,US,,,,Public,,public,,,,,,,,,,,,,,,,,,,,,,,,,,,,
ELEC,FRUSCIONE LLC 200 CT,200 Clocktower Dr,,Hamilton Township,NJ,08690,,888-758-4389,E,,Public,24 hours daily,,,,,,2,,,ChargePoint Network,http://www.chargepoint.com/,GPS,40.205246,-74.659446,2023-09-26,82504,2023-09-26 00:19:19 UTC,,,,2017-05-05,,,,,J1772,US,,,,Public,,public,,,,,,,,,,,,,,,,,,,,,,,,,,,,
ELEC,PINGRY STATION 1,131 Martinsville Rd,,Basking Ridge,NJ,07920,,888-758-4389,E,,Public,24 hours daily,,,,,,2,,,ChargePoint Network,http://www.chargepoint.com/,GPS,40.619297,-74.564719,2023-09-26,85487,2023-09-26 00:20:30 UTC,,,,2017-06-09,,,,,J1772,US,,,,Public,,public,,,,,,,,,,,,,,,,,,,,,,,,,,,,
ELEC,PRINCETON MUNI SPRING STREET,24 Spring St,,Princeton,NJ,08542,,888-758-4389,E,,Public,24 hours daily,,,,,,2,,,ChargePoint Network,http://www.chargepoint.com/,GPS,40.351268,-74.659425,2023-09-26,85573,2023-09-26 00:19:13 UTC,,,,2017-06-17,,,,,J1772,US,,,,Public,,public,,,,,,,,,,,,,,,,,,,,,,,,,,,,
ELEC,Borough of Rutherford - Memorial Park,2 Darwin Ave,Located at the corner of Darwin and Monona avenues,Rutherford,NJ,07070,,201-460-3000,E,,Public,24 hours daily,,,,,,2,,,Non-Networked,,200-9,40.844127,-74.12045,2021-01-14,86170,2021-03-11 23:22:17 UTC,LG,,,2018-08-01,,,,,J1772,US,,,,Public,,public,,,PARK,,,,,,,,,,,,,,,,,false,,,,,,,,
ELEC,Schumacher Chevrolet,8 Main St,,Little Falls,NJ,07424,,,E,,Private,Service center use only,,,,,,1,1,,Non-Networked,,200-9,40.881081,-74.224388,2023-02-13,87449,2023-02-14 15:54:11 UTC,P,,,2017-07-31,,,,,J1772 J1772COMBO,US,,,,Privé,,private,,,CAR_DEALER,,,,,,,Free,,,,,,,,,,,,,,,,,,
ELEC,METROPARK EV 2,33 S Wood Ave,,Woodbridge Township,NJ,08830,,888-758-4389,E,,Public,24 hours daily,,,,,,2,,,ChargePoint Network,http://www.chargepoint.com/,GPS,40.565018,-74.328801,2023-09-26,87574,2023-09-26 00:16:11 UTC,,,,2017-09-12,,,,,J1772,US,,,,Public,,public,,,,,,,,,,,,,,,,,,,,,,,,,,,,
ELEC,Bayshore Recycling,75 Crows Mill Rd,Located at Smith Street and Crows Mill Road,Keasbey,NJ,08832,,,E,,Private,Employee use only,,,,,,2,,,Non-Networked,,200-9,40.514261,-74.309172,2023-02-13,87910,2023-02-14 15:54:11 UTC,P,,,2017-06-15,,,,,J1772,US,,,,Privé,,private,,,OFFICE_BLDG,,,,,,,,,,,,,,,,,,,,,,,,,
ELEC,Residence Inn - Secaucus Meadowlands,800 Plaza Dr,,Secaucus,NJ,07094,,201-223-9901,E,,Public,24 hours daily; for guest use only,,,,,,2,,,Non-Networked,,200-8,40.786973,-74.046449,2022-01-10,87965,2022-04-28 20:01:31 UTC,P,,,2016-03-15,,,,,J1772,US,,,,Public,,public,,,HOTEL,,,,,,,Free,,,,,,,,,,true,,,,,,,,LD
ELEC,SECAUCUS MUNICIPAL LOT,1535 Paterson Plank Rd,,Secaucus,NJ,07094,,888-758-4389,E,,Public,24 hours daily,,,,,,1,,,ChargePoint Network,http://www.chargepoint.com/,GPS,40.79902,-74.058645,2023-09-26,87983,2023-09-26 00:19:25 UTC,,,,2017-10-11,,,,,J1772,US,,,,Public,,public,,,,,,,,,,,,,,,,,,,,,,,,,,,,
ELEC,WALMART EVSE BURLINGTON DCEC,2106 Mt Holly Rd,,Burlington,NJ,08016,,888-758-4389,E,,Public,24 hours daily,,,,,,,1,,ChargePoint Network,http://www.chargepoint.com/,GPS,40.048523,-74.842584,2023-09-26,88121,2023-09-26 00:15:29 UTC,,,,2017-10-24,,,,,CHADEMO J1772COMBO,US,,,,Public,,public,,,,,,,,,,,,,,,,,,,,,,,,,,,,
ELEC,GREENE 750 BUILDING NO. 11,23 Wheldon Shivers Dr,,Ewing Township,NJ,08628,,888-758-4389,E,,Public,24 hours daily,,,,,,2,,,ChargePoint Network,http://www.chargepoint.com/,GPS,40.274146,-74.823092,2023-09-26,88292,2023-09-26 00:18:09 UTC,,,,2017-11-03,,,,,J1772,US,,,,Public,,public,,,,,,,,,,,,,,,,,,,,,,,,,,,,
ELEC,Monroe Township Library,4 Municipal Plaza,Located in the far left row of the parking lot of the Monroe Township Library in Middlesex County,Monroe Township,NJ,08831,,732-521-5000,E,,Public,24 hours daily,,,,,,1,,,Non-Networked,,GPS,40.327708,-74.442655,2021-05-06,88614,2022-02-10 19:42:29 UTC,LG,,,2017-12-01,,,,,J1772,US,,,,Public,,public,,,LIBRARY,,,,,,,Free,,,,,,,,,,false,,,,,,,,
CNG,South Jersey Gas - Riggins,461 Delsea Dr,,Malaga,NJ,08328,,866-278-3674,E,,Public - Credit card at all times,5am-10pm daily,A Comdata D Debit M V Voyager Wright_Exp,,Q,3600,,,,,,,200-9,39.572621,-75.053406,2022-12-13,89911,2023-09-25 15:01:25 UTC,T,,,2017-12-26,,HD,,,,US,,,,Public - Carte de crédit en tout temps,,public,CREDIT_CARD_ALWAYS,,UTILITY,1,,618,11121,,,,,,,,Q,3600,HD,,,false,,,,,,false,,HD
ELEC,EDENS PRINCETON EV STATION 01,301 N Harrison St Located by Nomad Pizza,,Princeton,NJ,08540,,888-758-4389,E,,Public,24 hours daily,,,,,,2,,,ChargePoint Network,http://www.chargepoint.com/,GPS,40.363345,-74.651993,2023-09-26,92228,2023-09-26 00:25:44 UTC,,,,2018-03-07,,,,,J1772,US,,,,Public,,public,,,,,,,,,,,,,,,,,,,,,,,,,,,,
ELEC,CLOSTER EV STATION 01,19 Vervalen St Closter Plaza,,Closter,NJ,07624,,888-758-4389,E,,Public,24 hours daily,,,,,,2,,,ChargePoint Network,http://www.chargepoint.com/,GPS,40.969269,-73.955252,2023-09-26,92241,2023-09-26 00:25:38 UTC,,,,2018-03-07,,,,,J1772,US,,,,Public,,public,,,,,,,,,,,,,,,,,,,,,,,,,,,,
ELEC,SECAUCUS PUBLIC LIBRARY,1379 Paterson Plank Rd,,Secaucus,NJ,07094,,888-758-4389,E,,Public,24 hours daily,,,,,,1,,,ChargePoint Network,http://www.chargepoint.com/,GPS,40.793752,-74.059168,2023-09-26,92466,2023-09-26 00:19:25 UTC,,,,2018-03-07,,,,,J1772,US,,,,Public,,public,,,,,,,,,,,,,,,,,,,,,,,,,,,,
ELEC,PARKAVENUEBMW STATION 01,210 NJ-17,,Rochelle Park,NJ,07662,,888-758-4389,E,,Public,24 hours daily,,,,,,2,,,ChargePoint Network,http://www.chargepoint.com/,GPS,40.906523,-74.071136,2023-09-26,92502,2023-09-26 00:25:30 UTC,,,,2018-03-07,,,,,J1772,US,,,,Public,,public,,,,,,,,,,,,,,,,,,,,,,,,,,,,
ELEC,RED BANK MONMOUTH,90 Monmouth St,,Red Bank,NJ,07701,,888-758-4389,E,,Public,24 hours daily,,,,,,2,,,ChargePoint Network,http://www.chargepoint.com/,GPS,40.349339,-74.069774,2023-09-26,96693,2023-09-26 00:26:38 UTC,,,,2018-04-19,,,,,J1772,US,,,,Public,,public,,,,,,,,,,,,,,,,,,,,,,,,,,,,
ELEC,The Herman T. Costello Lyceum Hall,432 High St,,Burlington,NJ,08016,,609-239-0029  410-685-1109,E,,Public,Building hours,,,,,,2,,,Non-Networked,,200-8,40.076462,-74.857778,2023-01-10,96728,2023-02-14 15:54:11 UTC,P,,,2018-04-01,,,,,J1772,US,,,,Public,,public,,,OTHER_ENTERTAINMENT,,,,,,,Free,,,,,,,,,,false,,,,,,,,LD
ELEC,SEASIDE HEIGHTS SEASIDE 1,55 Grant Ave,,Seaside Heights,NJ,08751,,888-758-4389,E,,Public,24 hours daily,,,,,,2,,,ChargePoint Network,http://www.chargepoint.com/,GPS,39.942476,-74.072694,2023-09-26,98475,2023-09-26 00:26:16 UTC,,,,2018-05-22,,,,,J1772,US,,,,Public,,public,,,,,,,,,,,,,,,,,,,,,,,,,,,,
ELEC,Township of Ocean - Town Hall,399 Monmouth Rd,Located at the corner of Monmouth and Deal Roads,Oakhurst,NJ,07755,,732-531-5000,E,,Public,24 hours daily; for visitor use only,,,,,,2,,,Non-Networked,,200-9,40.253723,-74.013243,2023-01-10,98499,2023-02-14 15:54:11 UTC,LG,,,2018-02-01,,,,,J1772,US,,,,Public,,public,,,MUNI_GOV,,,,,,,Free,,,,,,,,,,true,,,,,,,,LD
ELEC,Environmental Protection Agency,2890 Woodbridge Ave,,Edison,NJ,08837,,,E,,Private,Fleet use only,,,,,,4,,,Non-Networked,,GPS,40.515384,-74.357705,2021-02-22,98673,2021-03-11 23:22:17 UTC,FG,20,U.S. Environmental Protection Agency,2018-04-01,,,,,J1772,US,,,,Privé,,private,,EPA,FED_GOV,,,,,,,,,,,,,,,,,,,,,,,,,
ELEC,Borough of Rutherford - Kip Parking Garage,55 Kip Ave,,Rutherford,NJ,07070,,201-460-3000,E,,Public,24 hours daily,,,,,,4,,,Non-Networked,,GPS,40.828,-74.103,2022-11-10,99307,2023-02-14 15:54:11 UTC,LG,,,2018-08-01,,,,,J1772,US,,,,Public,,public,,,PARKING_GARAGE,,,,,,,Free,,,,,,,,,,false,,,,,,,,LD
ELEC,Ocean City - City Hall,840 Central Ave,,Ocean City,NJ,08226,,609-399-6111,E,,Public,24 hours daily,,,,,,2,,,Non-Networked,,200-9,39.278656,-74.575488,2021-12-09,99711,2022-02-10 19:42:29 UTC,LG,,,2018-06-15,,,,,J1772,US,,,,Public,,public,,,MUNI_GOV,,,,,,,"$1.35 per hour for first 4 hours, $3.00 per hour thereafter",,,,,,,,,,false,,,,,,,,LD
ELEC,CITY HALL 01 CITY HALL 01,840 Central Ave,,Ocean City,NJ,08226,,888-758-4389,E,,Public,24 hours daily,,,,,,2,,,ChargePoint Network,http://www.chargepoint.com/,GPS,39.278662,-74.575552,2023-09-26,99882,2023-09-26 00:26:10 UTC,,,,2018-07-24,,,,,J1772,US,,,,Public,,public,,,,,,,,,,,,,,,,,,,,,,,,,,,,
ELEC,SEASIDE HEIGHTS SEASIDE PH. 2A,21A Hancock Ave,,Seaside Heights,NJ,08751,,888-758-4389,E,,Public,24 hours daily,,,,,,2,,,ChargePoint Network,http://www.chargepoint.com/,GPS,39.944341,-74.070951,2023-09-26,99909,2023-09-26 00:28:16 UTC,,,,2018-07-25,,,,,J1772,US,,,,Public,,public,,,,,,,,,,,,,,,,,,,,,,,,,,,,
ELEC,Molly Pitcher Service Area - Tesla Supercharger,Mile Marker 71.7 New Jersey Turnpike,,Cranbury,NJ,08512,,877-798-3752,E,,Public,24 hours daily,,,,,,,8,,Tesla,https://www.tesla.com/supercharger,GPS,40.32244,-74.4869,2023-07-01,102291,2023-07-14 19:41:28 UTC,P,,,2015-05-01,,,,,TESLA,US,,,,Public,,public,,,,,,,,,,,,,,,,,,,,,,,,,,,,
ELEC,Joyce Kilmer Service Area - Tesla Supercharger,Mile Marker 78 New Jersey Turnpike North,,East Brunswick,NJ,08816,,877-798-3752,E,,Public,24 hours daily,,,,,,,8,,Tesla,https://www.tesla.com/supercharger,GPS,40.415938,-74.444713,2023-07-01,102292,2023-07-14 19:41:28 UTC,P,,,2015-06-01,,,,,TESLA,US,,,,Public,,public,,,,,,,,,,,,,,,,,,,,,,,,,,,,
ELEC,Menlo Park Mall - Tesla Supercharger,55 Parsonage Rd.,,Edison,NJ,08837,,877-798-3752,E,,Public,24 hours daily,,,,,,,16,,Tesla,https://www.tesla.com/supercharger,200-8,40.544595,-74.334113,2023-07-01,102293,2023-07-14 19:41:28 UTC,P,,,2014-08-15,,,,,TESLA,US,,,,Public,,public,,,,,,,,,,,,,,,,,,,,,,,,,,,,
ELEC,JR's Fresh Market - Tesla Supercharger,3121 Fire Road,,Egg Harbor Township,NJ,08234,,877-798-3752,E,,Public,24 hours daily,,,,,,,8,,Tesla,https://www.tesla.com/supercharger,200-9,39.393663,-74.562619,2023-07-01,102294,2023-07-14 19:41:28 UTC,P,,,2016-06-01,,,,,TESLA,US,,,,Public,,public,,,,,,,,,,,,,,,,,,,,,,,,,,,,
ELEC,Hamilton Marketplace - Tesla Supercharger,425 Market Place Blvd,,Hamilton Township,NJ,08691,,877-798-3752,E,,Public,24 hours daily,,,,,,,6,,Tesla,https://www.tesla.com/supercharger,200-8,40.195539,-74.641375,2023-07-01,102295,2023-07-14 19:41:28 UTC,P,,,2014-04-15,,,,,TESLA,US,,,,Public,,public,,,,,,,,,,,,,,,,,,,,,,,,,,,,
ELEC,The Oakman - Tesla Supercharger,160 First Street,,Jersey City,NJ,07302,,877-798-3752,E,,Public,6am-12am daily,,,,,,,6,,Tesla,https://www.tesla.com/supercharger,200-9,40.721595,-74.040469,2023-07-01,102296,2023-07-14 19:41:28 UTC,P,,,2018-07-23,,,,,TESLA,US,,,,Public,,public,,,,,,,,,,,,,,,,,,,,,,,,,,,,
ELEC,MainStreetNB - Tesla Supercharger,191 Grand Avenue,,North Brunswick,NJ,08902,,877-798-3752,E,,Public,24 hours daily,,,,,,,10,,Tesla,https://www.tesla.com/supercharger,200-8,40.439674,-74.504514,2023-07-01,102297,2023-07-14 19:41:28 UTC,P,,,2018-07-23,,,,,TESLA,US,,,,Public,,public,,,,,,,,,,,,,,,,,,,,,,,,,,,,
ELEC,Tesla Service Center Paramus - Tesla Supercharger,530 Route 17 N,,Paramus,NJ,07652,,877-798-3752,E,,Public,24 hours daily,,,,,,,8,,Tesla,https://www.tesla.com/supercharger,200-9,40.957892,-74.073976,2023-07-01,102298,2023-07-14 19:41:28 UTC,P,,,2015-01-01,,,,,TESLA,US,,,,Public,,public,,,,,,,,,,,,,,,,,,,,,,,,,,,,
ELEC,Jersey Shore Premium Outlets - Tesla Supercharger,1 Premium Outlets Blvd,,Tinton Falls,NJ,07753,,877-798-3752,E,,Public,24 hours daily,,,,,,,8,,Tesla,https://www.tesla.com/supercharger,200-9,40.226408,-74.093572,2023-07-01,102299,2023-07-14 19:41:28 UTC,P,,,2015-07-01,,,,,TESLA,US,,,,Public,,public,,,,,,,,,,,,,,,,,,,,,,,,,,,,
ELEC,Newport Centre - Tesla Supercharger,30 Mall Drive West,,Jersey City,NJ,07310,,877-798-3752,E,,Public,24 hours daily,,,,,,,20,,Tesla,https://www.tesla.com/supercharger,200-9,40.727344,-74.039834,2023-07-01,102300,2023-07-14 19:41:28 UTC,P,,,2018-07-23,,,,,TESLA,US,,,,Public,,public,,,,,,,,,,,,,,,,,,,,,,,,,,,,
ELEC,Wawa - Tesla Supercharger,440 King Georges Road,,Woodbridge,NJ,08857,,877-798-3752,E,,Public,24 hours daily,,,,,,,16,,Tesla,https://www.tesla.com/supercharger,200-9,40.535859,-74.297322,2023-07-01,102301,2023-07-14 19:41:28 UTC,P,,,2018-07-23,,,,,TESLA,US,,,,Public,,public,,,,,,,,,,,,,,,,,,,,,,,,,,,,
ELEC,Mick Drive Garage,10 Mick Dr,,Glassboro,NJ,08028,,856-243-5702,E,,Public,24 hours daily; 1 hour session limit,,,,,,5,,,Non-Networked,,GPS,39.703728,-75.113659,2021-12-09,102950,2022-02-10 19:42:29 UTC,P,,,2017-12-01,,,,,J1772,US,,,,Public,,public,,,PARKING_GARAGE,,,,,,,Free,,,,,,,,,,false,,,,,,,,LD
ELEC,SECAUCUS RECREATION CENT,1200 Koelle Blvd,,Secaucus,NJ,07094,,888-758-4389,E,,Public,24 hours daily,,,,,,1,,,ChargePoint Network,http://www.chargepoint.com/,GPS,40.799955,-74.047792,2023-09-26,104634,2023-09-26 00:19:26 UTC,,,,2018-11-09,,,,,J1772,US,,,,Public,,public,,,,,,,,,,,,,,,,,,,,,,,,,,,,
ELEC,Borough of Demarest - Department Of Public Works,22 Wakelee Dr,,Demarest,NJ,07627,,201-768-0167,E,,Public,24 hours daily,,,,,,3,,,Non-Networked,,200-8,40.958278,-73.963963,2022-01-10,104735,2022-02-10 19:42:29 UTC,LG,,,2018-11-01,,,,,J1772,US,,,,Public,,public,,,MUNI_GOV,,,,,,,Free,,,,,,,,,,false,,,,,,,,LD
ELEC,EMD ELEC_CHG EMD1,70 Meister Ave,,Branchburg,NJ,08876,,888-758-4389,E,,Public,24 hours daily,,,,,,2,,,ChargePoint Network,http://www.chargepoint.com/,GPS,40.601563,-74.700105,2023-09-26,105206,2023-09-26 00:30:01 UTC,,,,2018-12-12,,,,,J1772,US,,,,Public,,public,,,,,,,,,,,,,,,,,,,,,,,,,,,,
ELEC,WESTFIELD GSP GSP CHARGER 03,1 Garden State Plaza Blvd,,Paramus,NJ,07652,,888-758-4389,E,,Public,24 hours daily,,,,,,2,,,ChargePoint Network,http://www.chargepoint.com/,GPS,40.918276,-74.077308,2023-09-26,105308,2023-09-26 00:29:07 UTC,,,,2018-12-14,,,,,J1772,US,,,,Public,,public,,,,,,,,,,,,,,,,,,,,,,,,,,,,
ELEC,Hampton Inn Atlantic City - Tesla Destination,338 E White Horse Pike,,Absecon,NJ,08205,,609-385-0801  877-798-3752,E,,Public,,,,,,,2,,,Tesla Destination,https://www.tesla.com/destination-charging,200-9,39.439309,-74.520397,2022-10-06,114758,2023-01-18 15:15:20 UTC,P,,,2017-01-10,,,,,TESLA,US,,,,Public,,public,,,HOTEL,,,,,,,Free,,,,,,,,,,,,,,,,,,
ELEC,Borgata Hotel Casino & Spa - Tesla Destination,1 Borgata Way,,Atlantic City,NJ,08401,,609-317-1000  877-798-3752,E,,Public,,,,,,,4,,,Tesla Destination,https://www.tesla.com/destination-charging,200-9,39.3783892,-74.4353557,2022-10-06,114759,2023-01-18 15:15:20 UTC,P,,,2015-07-27,,,,,TESLA,US,,,,Public,,public,,,HOTEL,,,,,,,Free,,,,,,,,,,,,,,,,,,
ELEC,Dock's Oyster House - Tesla Destination,2405 Atlantic Ave,,Atlantic City,NJ,08401,,609-345-0092  877-798-3752,E,,Public,,,,,,,3,,,Tesla Destination,https://www.tesla.com/destination-charging,200-9,39.357222,-74.441153,2022-10-06,114760,2023-01-18 15:15:20 UTC,P,,,2017-11-20,,,,,TESLA,US,,,,Public,,public,,,RESTAURANT,,,,,,,Free,,,,,,,,,,,,,,,,,,
ELEC,Golden Nugget Casino Hotel - Tesla Destination,Huron Ave & Brigantine Blvd,,Atlantic City,NJ,08401,,609-441-2000  877-798-3752,E,,Public,,,,,,,3,,,Tesla Destination,https://www.tesla.com/destination-charging,GPS,39.379335,-74.427382,2022-10-06,114761,2023-01-18 15:15:20 UTC,P,,,2016-02-26,,,,,J1772 TESLA,US,,,,Public,,public,,,HOTEL,,,,,,,Free,,,,,,,,,,,,,,,,,,
ELEC,The Gables - Tesla Destination,212 Centre St,,Beach Haven,NJ,08008,,609-492-3553  877-798-3752,E,,Public,,,,,,,1,,,Tesla Destination,https://www.tesla.com/destination-charging,200-9,39.563186,-74.239133,2022-10-06,114762,2023-01-18 15:15:20 UTC,P,,,2014-07-03,,,,,TESLA,US,,,,Public,,public,,,RESTAURANT,,,,,,,Free,,,,,,,,,,,,,,,,,,
ELEC,The Bernard's Inn - Tesla Destination,27 Mine Brook Rd,,Bernardsville,NJ,07924,,908-766-0002  877-798-3752,E,,Public,,,,,,,2,,,Tesla Destination,https://www.tesla.com/destination-charging,200-9,40.717948,-74.570447,2022-10-06,114763,2023-01-18 15:15:20 UTC,P,,,2015-05-01,,,,,J1772 TESLA,US,,,,Public,,public,,,INN,,,,,,,Free,,,,,,,,,,,,,,,,,,
ELEC,Wine Shoppe - Tesla Destination,2736 Hooper Ave,,Brick,NJ,08723,,732-255-8888  877-798-3752,E,,Public,,,,,,,1,,,Tesla Destination,https://www.tesla.com/destination-charging,200-8,40.055041,-74.133937,2022-10-06,114764,2023-01-18 15:15:20 UTC,P,,,2015-01-07,,,,,TESLA,US,,,,Public,,public,,,SHOPPING_CENTER,,,,,,,Free,,,,,,,,,,,,,,,,,,
ELEC,Legacy Vacation Club Brigantine Beach - Tesla Destination,1400 Ocean Beach Ave,,Brigantine,NJ,08203,,609-266-2266  877-798-3752,E,,Public,,,,,,,4,,,Tesla Destination,https://www.tesla.com/destination-charging,200-9,39.3996865,-74.3711075,2022-10-06,114765,2023-01-18 15:15:20 UTC,P,,,2018-07-05,,,,,J1772 TESLA,US,,,,Public,,public,,,HOTEL,,,,,,,Free,,,,,,,,,,,,,,,,,,
ELEC,Congress Hall - Tesla Destination,200 Congress Pl,,Cape May,NJ,08204,,888-944-1816  877-798-3752,E,,Public,,,,,,,3,,,Tesla Destination,https://www.tesla.com/destination-charging,200-8,38.931037,-74.923703,2022-10-06,114766,2023-01-18 15:15:20 UTC,P,,,2014-08-07,,,,,J1772 TESLA,US,,,,Public,,public,,,HOTEL,,,,,,,Free,,,,,,,,,,,,,,,,,,
ELEC,ShopRite of Greater Morristown - Tesla Destination,178 E Hanover Ave,,Cedar Knolls,NJ,07927,,973-829-6825  877-798-3752,E,,Public,,,,,,,2,,,Tesla Destination,https://www.tesla.com/destination-charging,200-9,40.813953,-74.468894,2022-10-06,114767,2023-01-18 15:15:20 UTC,P,,,2016-01-29,,,,,TESLA,US,,,,Public,,public,,,SHOPPING_CENTER,,,,,,,Free,,,,,,,,,,,,,,,,,,
ELEC,Hampton Inn Clinton - Tesla Destination,16 Frontage Dr,,Clinton,NJ,08809,,908-713-4800  877-798-3752,E,,Public,,,,,,,2,,,Tesla Destination,https://www.tesla.com/destination-charging,200-9,40.629178,-74.917601,2022-10-06,114768,2023-01-18 15:15:20 UTC,P,,,2017-07-11,,,,,TESLA,US,,,,Public,,public,,,HOTEL,,,,,,,Free,,,,,,,,,,,,,,,,,,
ELEC,Borough of Glen Rock Train Station Commuter Parking - Tesla Destination,170 Rock Rd,,Glen Rock,NJ,07452,,201-670-3956  877-798-3752,E,,Public,,,,,,,2,,,Tesla Destination,https://www.tesla.com/destination-charging,200-8,40.962288,-74.133814,2022-10-06,114772,2023-01-18 15:15:20 UTC,P,,,2018-07-12,,,,,J1772 TESLA,US,,,,Public,,public,,,MUNI_GOV,,,,,,,Free,,,,,,,,,,,,,,,,,,
ELEC,W Hoboken - Tesla Destination,225 River St,,Hoboken,NJ,07030,,201-253-2400  877-798-3752,E,,Public,,,,,,,2,,,Tesla Destination,https://www.tesla.com/destination-charging,200-8,40.7391898,-74.0277601,2022-10-06,114773,2023-01-18 15:15:20 UTC,P,,,2017-11-22,,,,,TESLA,US,,,,Public,,public,,,HOTEL,,,,,,,Free,,,,,,,,,,,,,,,,,,
ELEC,Propark The Morgan at Provost Square - Tesla Destination,160 Morgan St,,Jersey City,NJ,07032,,914-478-6300  877-798-3752,E,,Public,,,,,,,3,,,Tesla Destination,https://www.tesla.com/destination-charging,200-8,40.720023,-74.040243,2022-10-06,114774,2023-01-18 15:15:20 UTC,P,,,2017-08-02,,,,,J1772 TESLA,US,,,,Public,,public,,,PAY_GARAGE,,,,,,,Free,,,,,,,,,,,,,,,,,,
ELEC,Propark - Madox Apartments - Tesla Destination,198 Van Vorst St,,Jersey City,NJ,07302,,201-369-1200  877-798-3752,E,,Public,,,,,,,1,,,Tesla Destination,https://www.tesla.com/destination-charging,200-9,40.71387,-74.04138,2022-10-06,114775,2023-01-18 15:15:20 UTC,P,,,2014-10-23,,,,,TESLA,US,,,,Public,,public,,,PAY_GARAGE,,,,,,,Free,,,,,,,,,,,,,,,,,,
ELEC,Hyatt Regency Jersey City on the Hudson - Tesla Destination,2 Exchange Pl,,Jersey City,NJ,07302,,201-469-1234  877-798-3752,E,,Public,,,,,,,2,,,Tesla Destination,https://www.tesla.com/destination-charging,200-9,40.716966,-74.032769,2022-10-06,114776,2023-01-18 15:15:20 UTC,P,,,2014-09-07,,,,,TESLA,US,,,,Public,,public,,,HOTEL,,,,,,,Free,,,,,,,,,,,,,,,,,,
ELEC,Littleman Parking Crystal Point Garage - Tesla Destination,2 Second St,,Jersey City,NJ,07032,,201-217-4040  877-798-3752,E,,Public,,,,,,,4,,,Tesla Destination,https://www.tesla.com/destination-charging,200-8,40.721293,-74.03204,2022-10-06,114777,2023-01-18 15:15:20 UTC,P,,,2017-06-16,,,,,TESLA,US,,,,Public,,public,,,PAY_GARAGE,,,,,,,Free,,,,,,,,,,,,,,,,,,
ELEC,Propark The Beacon - Tesla Destination,20 Beacon Wy,,Jersey City,NJ,07304,,201-433-0430  877-798-3752,E,,Public,,,,,,,3,,,Tesla Destination,https://www.tesla.com/destination-charging,200-9,40.722203,-74.064287,2022-10-06,114778,2023-01-18 15:15:20 UTC,P,,,2017-04-17,,,,,J1772 TESLA,US,,,,Public,,public,,,HOTEL,,,,,,,Free,,,,,,,,,,,,,,,,,,
ELEC,Vantage - Tesla Destination,33 Park View Ave,,Jersey City,NJ,07392,,201-333-1222  877-798-3752,E,,Public,,,,,,,2,,,Tesla Destination,https://www.tesla.com/destination-charging,200-9,40.7133979,-74.04439,2022-10-06,114779,2023-01-18 15:15:20 UTC,P,,,2018-05-08,,,,,TESLA,US,,,,Public,,public,,,PAY_GARAGE,,,,,,,Free,,,,,,,,,,,,,,,,,,
ELEC,Eno Terra Restaurant - Tesla Destination,4484 Rte 27,,Kingston,NJ,08528,,609-497-1777  877-798-3752,E,,Public,,,,,,,3,,,Tesla Destination,https://www.tesla.com/destination-charging,200-8,40.373937,-74.617588,2022-10-06,114780,2023-01-18 15:15:20 UTC,P,,,2017-12-05,,,,,TESLA,US,,,,Public,,public,,,RESTAURANT,,,,,,,Free,,,,,,,,,,,,,,,,,,
ELEC,"Lambertville House, a Distrikt Hotel - Tesla Destination",32 Bridge St,,Lambertville,NJ,08530,,609-397-0200  877-798-3752,E,,Public,,,,,,,1,,,Tesla Destination,https://www.tesla.com/destination-charging,200-9,40.365828,-74.94508,2022-10-06,114781,2023-01-18 15:15:20 UTC,P,,,2016-10-13,,,,,TESLA,US,,,,Public,,public,,,HOTEL,,,,,,,Free,,,,,,,,,,,,,,,,,,
ELEC,Doubletree by Hilton Mahwah - Tesla Destination,180 Route 17 S,,Mahwah,NJ,07430,,201-529-5880  877-798-3752,E,,Public,,,,,,,1,,,Tesla Destination,https://www.tesla.com/destination-charging,GPS,41.096589,-74.159129,2022-10-06,114782,2023-01-18 15:15:20 UTC,P,,,2017-06-15,,,,,TESLA,US,,,,Public,,public,,,HOTEL,,,,,,,Free,,,,,,,,,,,,,,,,,,
ELEC,Hilton Short Hills - Tesla Destination,41 John F. Kennedy Pkwy,,Millburn,NJ,07078,,973-379-0100  877-798-3752,E,,Public,,,,,,,1,,,Tesla Destination,https://www.tesla.com/destination-charging,200-8,40.742721,-74.366457,2022-10-06,114783,2023-01-18 15:15:20 UTC,P,,,2015-10-07,,,,,TESLA,US,,,,Public,,public,,,HOTEL,,,,,,,Free,,,,,,,,,,,,,,,,,,
ELEC,Propark Valley & Bloom Garage - Tesla Destination,34 Valley Rd,,Montclair,NJ,07042,,917-753-6717  877-798-3752,E,,Public,,,,,,,3,,,Tesla Destination,https://www.tesla.com/destination-charging,200-9,40.816653,-74.221252,2022-10-06,114784,2023-01-18 15:15:20 UTC,P,,,2017-04-04,,,,,J1772 TESLA,US,,,,Public,,public,,,PAY_GARAGE,,,,,,,Free,,,,,,,,,,,,,,,,,,
ELEC,Columbia Inn Restaurant - Tesla Destination,29 Main Rd,,Montville,NJ,07045,,973-268-1300  877-798-3752,E,,Public,,,,,,,3,,,Tesla Destination,https://www.tesla.com/destination-charging,200-9,40.913199,-74.390008,2022-10-06,114785,2023-01-18 15:15:20 UTC,P,,,2015-10-13,,,,,TESLA,US,,,,Public,,public,,,RESTAURANT,,,,,,,Free,,,,,,,,,,,,,,,,,,
ELEC,Best Western Plus Morristown Inn - Tesla Destination,270 South St,,Morristown,NJ,07960,,973-540-1700  877-798-3752,E,,Public,,,,,,,2,,,Tesla Destination,https://www.tesla.com/destination-charging,200-9,40.787657,-74.470353,2022-10-06,114786,2023-01-18 15:15:20 UTC,P,,,2018-01-24,,,,,J1772 TESLA,US,,,,Public,,public,,,HOTEL,,,,,,,Free,,,,,,,,,,,,,,,,,,
ELEC,Holiday Inn Express & Suites Mount Arlington - Tesla Destination,176 Howard Blvd,,Mt Arlington,NJ,07856,,973-770-7880  877-798-3752,E,,Public,,,,,,,2,,,Tesla Destination,https://www.tesla.com/destination-charging,200-8,40.9031798,-74.6332452,2022-10-06,114787,2023-01-18 15:15:20 UTC,P,,,2018-08-08,,,,,TESLA,US,,,,Public,,public,,,HOTEL,,,,,,,Free,,,,,,,,,,,,,,,,,,
ELEC,Best Western Plus Murray Hill Hotel & Suites - Tesla Destination,535 Central Ave,,New Providence,NJ,07974,,908-665-9200  877-798-3752,E,,Public,,,,,,,4,,,Tesla Destination,https://www.tesla.com/destination-charging,200-9,40.699027,-74.403284,2022-10-06,114788,2023-01-18 15:15:20 UTC,P,,,2018-02-05,,,,,J1772 TESLA,US,,,,Public,,public,,,HOTEL,,,,,,,Free,,,,,,,,,,,,,,,,,,
ELEC,The Wooden Duck Bed and Breakfast - Tesla Destination,140 Goodale Rd,,Newton,NJ,07860,,973-300-0395  877-798-3752,E,,Public,,,,,,,3,,,Tesla Destination,https://www.tesla.com/destination-charging,200-9,41.024869,-74.739386,2022-10-06,114789,2023-01-18 15:15:20 UTC,P,,,2015-04-28,,,,,J1772 TESLA,US,,,,Public,,public,,,B_AND_B,,,,,,,Free,,,,,,,,,,,,,,,,,,
ELEC,"The Candlelight Inn, a Select Registry Property - Tesla Destination",2310 Central Ave,,North Wildwood,NJ,08260,,609-522-6200  877-798-3752,E,,Public,,,,,,,2,,,Tesla Destination,https://www.tesla.com/destination-charging,200-9,38.9946328,-74.8073284,2022-10-06,114790,2023-01-18 15:15:20 UTC,P,,,2015-05-01,,,,,J1772 TESLA,US,,,,Public,,public,,,INN,,,,,,,Free,,,,,,,,,,,,,,,,,,
ELEC,The Peacock Inn - Tesla Destination,20 Bayard Ln,,Princeton,NJ,08540,,609-924-1707  877-798-3752,E,,Public,,,,,,,1,,,Tesla Destination,https://www.tesla.com/destination-charging,200-9,40.349131,-74.665479,2022-10-06,114791,2023-01-18 15:15:20 UTC,P,,,2016-01-04,,,,,TESLA,US,,,,Public,,public,,,INN,,,,,,,Free,,,,,,,,,,,,,,,,,,
ELEC,DoubleTree By Hilton Princeton - Tesla Destination,4355 Trenton Fwy,,Princeton,NJ,08540,,609-452-2400  877-798-3752,E,,Public,,,,,,,2,,,Tesla Destination,https://www.tesla.com/destination-charging,GPS,40.3663326,-74.5977189,2022-10-06,114792,2023-01-18 15:15:20 UTC,P,,,2018-09-19,,,,,TESLA,US,,,,Public,,public,,,HOTEL,,,,,,,Free,,,,,,,,,,,,,,,,,,
ELEC,"Whistling Swan Inn, a Select Registry Property - Tesla Destination",110 Main St,,Stanhope,NJ,07874,,973-347-6369  877-798-3752,E,,Public,,,,,,,1,,,Tesla Destination,https://www.tesla.com/destination-charging,200-9,40.905323,-74.709445,2022-10-06,114794,2023-01-18 15:15:20 UTC,P,,,2015-07-08,,,,,TESLA,US,,,,Public,,public,,,INN,,,,,,,Free,,,,,,,,,,,,,,,,,,
ELEC,Stockton Inn - Tesla Destination,1 Main St,,Stockton,NJ,08559,,609-397-1250  877-798-3752,E,,Public,,,,,,,3,,,Tesla Destination,https://www.tesla.com/destination-charging,200-9,40.406122,-74.977199,2022-10-06,114795,2023-01-18 15:15:20 UTC,P,,,2017-05-11,,,,,J1772 TESLA,US,,,,Public,,public,,,INN,,,,,,,Free,,,,,,,,,,,,,,,,,,
ELEC,The Woolverton Inn - Tesla Destination,6 Woolverton Rd,,Stockton,NJ,08559,,609-397-0802  877-798-3752,E,,Public,,,,,,,2,,,Tesla Destination,https://www.tesla.com/destination-charging,200-9,40.408703,-74.980133,2022-10-06,114796,2023-01-18 15:15:20 UTC,P,,,2016-10-17,,,,,J1772 TESLA,US,,,,Public,,public,,,INN,,,,,,,Free,,,,,,,,,,,,,,,,,,
ELEC,The Grand Summit Hotel - Tesla Destination,570 Springfield Ave,,Summit,NJ,07901,,908-273-3000  877-798-3752,E,,Public,,,,,,,3,,,Tesla Destination,https://www.tesla.com/destination-charging,200-9,40.714932,-74.366529,2022-10-06,114797,2023-01-18 15:15:20 UTC,P,,,2015-12-22,,,,,J1772 TESLA,US,,,,Public,,public,,,HOTEL,,,,,,,Free,,,,,,,,,,,,,,,,,,
ELEC,Highlawn Pavilion - Tesla Destination,1 Crest Dr,,West Orange,NJ,07052,,973-731-3463  877-798-3752,E,,Public,,,,,,,2,,,Tesla Destination,https://www.tesla.com/destination-charging,200-8,40.804321,-74.237643,2022-10-06,114798,2023-01-18 15:15:20 UTC,P,,,2014-11-07,,,,,TESLA,US,,,,Public,,public,,,HOTEL,,,,,,,Free,,,,,,,,,,,,,,,,,,
ELEC,Best Western Westfield Inn - Tesla Destination,435 N Ave W,,Westfield,NJ,07090,,908-654-5600  877-798-3752,E,,Public,,,,,,,2,,,Tesla Destination,https://www.tesla.com/destination-charging,200-9,40.649738,-74.349093,2022-10-06,114799,2023-01-18 15:15:20 UTC,P,,,2018-02-05,,,,,J1772 TESLA,US,,,,Public,,public,,,HOTEL,,,,,,,Free,,,,,,,,,,,,,,,,,,
ELEC,DCH KAY HONDA STATION 01,200 NJ-36,,Eatontown,NJ,07724,,888-758-4389,E,,Public,24 hours daily,,,,,,2,,,ChargePoint Network,http://www.chargepoint.com/,GPS,40.290794,-74.042969,2023-09-26,117151,2023-09-26 00:29:58 UTC,,,,2019-01-18,,,,,J1772,US,,,,Public,,public,,,,,,,,,,,,,,,,,,,,,,,,,,,,
ELEC,First Priority Group,160 Gold Mine Road,,Flanders,NJ,08816,,866-816-7584,E,,Public,,,,,,,6,,,EV Connect,http://evconnect.com/,GPS,40.880179,-74.708758,2023-09-26,117271,2023-09-26 01:29:24 UTC,,,,2018-12-05,,,,,J1772,US,,,,Public,,public,,,,,,,,,,,,,,,,,,,,,,,,,,,,
ELEC,Wawa - Tesla Supercharger,51 Berkley Road,,Paulsboro,NJ,08066,,877-798-3752,E,,Public,24 hours daily,A D Debit M V,,,,,,8,,Tesla,https://www.tesla.com/supercharger,GPS,39.821606,-75.240969,2023-07-01,117725,2023-07-14 19:41:28 UTC,P,,,2018-12-01,,,,,TESLA,US,,,,Public,,public,,,CONVENIENCE_STORE,,,,,,,,,,,,,,,,,,,,,,,,,
CNG,Clean Energy - South Jersey Gas,21 White Horse Pike,,Waterford Works,NJ,08089,,866-278-3674,E,,Public - Credit card at all times,24 hours daily,CleanEnergy D M V Voyager Wright_Exp,,Q,3600,,,,,,,200-9,39.729204,-74.863836,2022-12-13,117871,2023-09-25 15:01:25 UTC,T,,,2019-02-08,,MD,,,,US,,,,Public - Carte de crédit en tout temps,,public,CREDIT_CARD_ALWAYS,,UTILITY,4,LANDFILL,1000,,,,,,,,,Q,3600,MD,,,false,,,,,,true,,MD
ELEC,Wawa - Tesla Supercharger,200 Harrison Avenue,,Kearny,NJ,07032,,877-798-3752,E,,Public,24 hours daily,,,,,,,8,,Tesla,https://www.tesla.com/supercharger,GPS,40.749014,-74.135578,2023-07-01,118950,2023-07-14 19:41:28 UTC,P,,,2019-02-01,,,,,TESLA,US,,,,Public,,public,,,CONVENIENCE_STORE,,,,,,,,,,,,,,,,,,,,,,,,,
ELEC,PLANET HONDA STATION 01,2285 US-22,,Union,NJ,07083,,888-758-4389,E,,Public,24 hours daily,,,,,,2,,,ChargePoint Network,http://www.chargepoint.com/,GPS,40.692288,-74.290742,2023-09-26,119028,2023-09-26 00:31:23 UTC,,,,2019-03-08,,,,,J1772,US,,,,Public,,public,,,,,,,,,,,,,,,,,,,,,,,,,,,,
ELEC,RED HAWK DECK CARPARC DIEM DE,28 Clove Rd,,Little Falls,NJ,07424,,888-758-4389,E,,Public,24 hours daily,,,,,,2,,,ChargePoint Network,http://www.chargepoint.com/,GPS,40.865151,-74.197115,2023-09-26,119070,2023-09-26 00:31:26 UTC,,,,2019-03-09,,,,,J1772,US,,,,Public,,public,,,,,,,,,,,,,,,,,,,,,,,,,,,,
ELEC,RED HAWK DECK RED HAWK DECK,1 Normal Ave,,Montclair,NJ,07043,,888-758-4389,E,,Public,24 hours daily,,,,,,2,,,ChargePoint Network,http://www.chargepoint.com/,GPS,40.85986,-74.200462,2023-09-26,119071,2023-09-26 00:31:26 UTC,,,,2019-03-09,,,,,J1772,US,,,,Public,,public,,,,,,,,,,,,,,,,,,,,,,,,,,,,
ELEC,DAVIS HONDA SHOP01,40 US-130,,Burlington,NJ,08016,,888-758-4389,E,,Public,24 hours daily,,,,,,1,,,ChargePoint Network,http://www.chargepoint.com/,GPS,40.069216,-74.856582,2023-09-26,120859,2023-09-26 00:31:45 UTC,,,,2019-03-15,,,,,J1772,US,,,,Public,,public,,,,,,,,,,,,,,,,,,,,,,,,,,,,
ELEC,RUTHERFORDBORO KIPAVE4,55 Kip Ave,,Rutherford,NJ,07070,,888-758-4389,E,,Public,24 hours daily,,,,,,1,,,ChargePoint Network,http://www.chargepoint.com/,GPS,40.828532,-74.103782,2023-09-26,121273,2023-09-26 00:24:07 UTC,,,,2019-04-09,,,,,J1772,US,,,,Public,,public,,,,,,,,,,,,,,,,,,,,,,,,,,,,
ELEC,LOT 1 JERSEY AV BOLLWAGE GAR 2,37 Caldwell Pl,,Elizabeth,NJ,07201,,888-758-4389,E,,Public,24 hours daily,,,,,,2,,,ChargePoint Network,http://www.chargepoint.com/,GPS,40.664437,-74.216558,2023-09-26,121491,2023-09-26 00:30:24 UTC,,,,2019-04-16,,,,,J1772,US,,,,Public,,public,,,,,,,,,,,,,,,,,,,,,,,,,,,,
ELEC,BERGEN HARLEY DCFAST HOG,124 Essex St,,Rochelle Park,NJ,07662,,888-758-4389,E,,Public,24 hours daily,,,,,,,1,,ChargePoint Network,http://www.chargepoint.com/,GPS,40.892506,-74.073138,2023-09-26,121570,2023-09-26 00:32:34 UTC,,,,2019-04-18,,,,,J1772COMBO,US,,,,Public,,public,,,,,,,,,,,,,,,,,,,,,,,,,,,,
ELEC,Barlow Chevrolet,6057 Route 130 S,,Delran,NJ,08075,,856-461-8400,E,,Public,24 hours daily,,,,,,,1,,Non-Networked,,200-9,40.020901,-74.946098,2022-11-10,121589,2023-02-14 15:54:11 UTC,P,,,2019-04-01,,,,,J1772COMBO,US,,,,Public,,public,,,CAR_DEALER,,,,,,,,,,,,,,,,,false,,,,,,,,LD
ELEC,41 SPRING SHELBOURNE1,41 Spring St,,New Providence,NJ,07974,,888-758-4389,E,,Public,24 hours daily,,,,,,2,,,ChargePoint Network,http://www.chargepoint.com/,GPS,40.696186,-74.411341,2023-09-26,121664,2023-09-26 00:14:31 UTC,,,,2019-04-23,,,,,J1772,US,,,,Public,,public,,,,,,,,,,,,,,,,,,,,,,,,,,,,
ELEC,Rockaway Town Plaza - Tesla Supercharger,395 Mount Hope Avenue,,Rockaway,NJ,07866,,877-798-3752,E,,Public,24 hours daily,,,,,,,12,,Tesla,https://www.tesla.com/supercharger,200-8,40.908505,-74.55736,2023-07-01,122304,2023-07-14 19:41:28 UTC,P,,,2019-03-01,,,,,TESLA,US,,,,Public,,public,,,,,,,,,,,,,,,,,,,,,,,,,,,,
ELEC,Wawa - Tesla Supercharger,2060 US-130,,Burlington,NJ,08016,,877-798-3752,E,,Public,24 hours daily,,,,,,,8,,Tesla,https://www.tesla.com/supercharger,GPS,40.101817,-74.793363,2023-07-01,122343,2023-07-14 19:41:28 UTC,P,,,2019-03-01,,,,,TESLA,US,,,,Public,,public,,,,,,,,,,,,,,,,,,,,,,,,,,,,
ELEC,Wawa - Tesla Supercharger,350 New Road,,Parsippany,NJ,07054,,877-798-3752,E,,Public,24 hours daily,,,,,,,8,,Tesla,https://www.tesla.com/supercharger,200-9,40.849718,-74.351359,2023-07-01,122344,2023-07-14 19:41:28 UTC,P,,,2019-03-01,,,,,TESLA,US,,,,Public,,public,,,,,,,,,,,,,,,,,,,,,,,,,,,,
ELEC,Ocean Resort Casino - Tesla Destination,500 Boardwalk,,Atlantic City,NJ,08401,,866-506-2326  877-798-3752,E,,Public,,,,,,,4,,,Tesla Destination,https://www.tesla.com/destination-charging,200-9,39.362445,-74.415697,2022-10-06,122462,2023-01-18 15:15:20 UTC,P,,,2019-01-22,,,,,TESLA,US,,,,Public,,public,,,,,,,,,,Free,,,,,,,,,,,,,,,,,,
ELEC,Delta Hotels by Marriott - Basking Ridge - Tesla Destination,80 Allen Rd,,Basking Ridge,NJ,07920,,908-580-1300  877-798-3752,E,,Public,,,,,,,6,,,Tesla Destination,https://www.tesla.com/destination-charging,200-9,40.6526376,-74.5809482,2022-10-06,122463,2023-01-18 15:15:20 UTC,P,,,2018-11-01,,,,,J1772 TESLA,US,,,,Public,,public,,,,,,,,,,Free,,,,,,,,,,,,,,,,,,
ELEC,Hidden Creek Golf Club - Tesla Destination,75 Asbury Rd,,Egg Harbor Township,NJ,08234,,609-909-2990  877-798-3752,E,,Public,,,,,,,2,,,Tesla Destination,https://www.tesla.com/destination-charging,200-9,39.394978,-74.686033,2022-10-06,122465,2023-01-18 15:15:20 UTC,P,,,2016-09-23,,,,,J1772 TESLA,US,,,,Public,,public,,,,,,,,,,Free,,,,,,,,,,,,,,,,,,
ELEC,Swan Lake Resort - Tesla Destination,106 E Moss Mill Rd,,Galloway,NJ,08205,,609-652-1577  877-798-3752,E,,Public,,,,,,,2,,,Tesla Destination,https://www.tesla.com/destination-charging,GPS,39.504038,-74.511829,2022-10-06,122466,2023-01-18 15:15:20 UTC,P,,,2019-01-28,,,,,TESLA,US,,,,Public,,public,,,,,,,,,,Free,,,,,,,,,,,,,,,,,,
ELEC,Best Western Plus Philadelphia Pennsauken - Tesla Destination,7050 NJ-38,,Pennsauken,NJ,08109,,856-333-0900  877-798-3752,E,,Public,,,,,,,3,,,Tesla Destination,https://www.tesla.com/destination-charging,200-9,39.933634,-75.077618,2022-10-06,122467,2023-01-18 15:15:20 UTC,P,,,2019-02-04,,,,,TESLA,US,,,,Public,,public,,,,,,,,,,Free,,,,,,,,,,,,,,,,,,
ELEC,PANYNJ EWR P4 STATION7,EWR Station P4 Daily Parking Garage Newark Li,,Newark,NJ,07114,,888-758-4389,E,,Public,24 hours daily,,,,,,2,,,ChargePoint Network,http://www.chargepoint.com/,GPS,40.696413,-74.183656,2023-09-26,122620,2023-09-26 00:28:01 UTC,,,,2019-05-04,,,,,J1772,US,,,,Public,,public,,,,,,,,,,,,,,,,,,,,,,,,,,,,
ELEC,1460 Aspen Garage,1460 Route 9,,Woodbridge,NJ,07095,,866-816-7584,E,,Public,,,,,,,4,,,EV Connect,http://evconnect.com/,GPS,40.560876,-74.295153,2023-09-26,123248,2023-09-26 01:29:29 UTC,,,,2019-04-01,,,,,J1772,US,,,,Public,,public,,,,,,,,,,,,,,,,,,,,,,,,,,,,
ELEC,Livingston Town Hall,357 South Livingston Avenue,,Livingston,NJ,07039,,866-816-7584,E,,Public,,,,,,,6,,,EV Connect,http://evconnect.com/,GPS,40.7824,-74.314617,2023-09-26,123249,2023-09-26 01:29:29 UTC,,,,2019-04-01,,,,,J1772,US,,,,Public,,public,,,,,,,,,,,,,,,,,,,,,,,,,,,,
ELEC,Borough Hall,55 River Road,,Edgewater,NJ,07020,,866-816-7584,E,,Public,,,,,,,6,,,EV Connect,http://evconnect.com/,GPS,40.804091,-73.992868,2023-09-26,123250,2023-09-26 01:29:30 UTC,,,,2019-04-01,,,,,J1772,US,,,,Public,,public,,,,,,,,,,,,,,,,,,,,,,,,,,,,
ELEC,Plainsboro Municipal Building,641 Plainsboro Road,,Plainsboro,NJ,08536,,866-816-7584,E,,Public,,,,,,,6,,,EV Connect,http://evconnect.com/,GPS,40.333705,-74.587104,2023-09-26,123251,2023-09-26 01:29:30 UTC,,,,2019-04-01,,,,,J1772,US,,,,Public,,public,,,,,,,,,,,,,,,,,,,,,,,,,,,,
ELEC,County of Essex Hall of Records & Veterans Court House,9 South Orange Avenue,,Newark,NJ,07103,,866-816-7584,E,,Public,,,,,,,6,,,EV Connect,http://evconnect.com/,GPS,40.736315,-74.180924,2023-09-26,123252,2023-09-26 01:29:28 UTC,,,,2019-04-01,,,,,J1772,US,,,,Public,,public,,,,,,,,,,,,,,,,,,,,,,,,,,,,
ELEC,ADP - Parsippany,99 Jefferson Rd,,Parsippany,NJ,07054,,866-816-7584,E,,Public,24 hours daily,,,,,,1,,,Non-Networked,,GPS,40.8574023,-74.4128071,2022-01-10,123253,2022-02-10 19:42:29 UTC,P,,,2019-04-01,,,,,J1772,US,,,,Public,,public,,,OFFICE_BLDG,,,,,,,,,,,,,,,,,false,,,,,,,,LD
ELEC,Verizon - Basking Ridge,1 Verizon Way,,Basking Ridge,NJ,07920,,,E,,Private,For employee use only,,,,,,22,,,Non-Networked,,200-9,40.726049,-74.533022,2023-04-06,123306,2023-04-06 17:17:01 UTC,P,,,2019-05-01,,,,,J1772,US,,,,Privé,,private,,,OFFICE_BLDG,,,,,,,,,,,,,,,,,,,,,,,,,LD
ELEC,Verizon - Branchburg,145 Chubb Way,,Somerville,NJ,08876,,,E,,Private,For employee use only,,,,,,4,,,Non-Networked,,200-9,40.555505,-74.705362,2023-04-06,123313,2023-04-06 17:17:01 UTC,P,,,2019-05-01,,,,,J1772,US,,,,Privé,,private,,,OFFICE_BLDG,,,,,,,,,,,,,,,,,,,,,,,,,LD
ELEC,Verizon - Harding,1496 Mt Kemble Ave,,Morristown,NJ,07960,,,E,,Private,For employee use only,,,,,,2,,,Non-Networked,,200-9,40.734474,-74.538576,2023-04-06,123314,2023-04-06 17:17:01 UTC,P,,,2019-05-01,,,,,J1772,US,,,,Privé,,private,,,OFFICE_BLDG,,,,,,,,,,,,,,,,,,,,,,,,,LD
ELEC,Verizon - Bedminster,180 Washington Valley Rd,,Bedminster,NJ,07921,,,E,,Private,For employee use only,,,,,,8,,,Non-Networked,,200-9,40.644406,-74.634952,2023-04-06,123317,2023-04-06 17:17:01 UTC,P,,,2019-05-01,,,,,J1772,US,,,,Privé,,private,,,OFFICE_BLDG,,,,,,,,,,,,,,,,,,,,,,,,,LD
ELEC,Verizon - Piscataway,201 Centennial Ave,,Piscataway,NJ,08854,,,E,,Private,For employee use only,,,,,,20,,,Non-Networked,,200-9,40.544646,-74.495763,2023-04-06,123322,2023-04-06 17:17:01 UTC,P,,,2019-05-01,,,,,J1772,US,,,,Privé,,private,,,OFFICE_BLDG,,,,,,,,,,,,,,,,,,,,,,,,,LD
ELEC,Verizon - Robbinsville,600 Horizon Dr,,Robbinsville,NJ,08691,,,E,,Private,For employee use only,,,,,,4,,,Non-Networked,,200-9,40.200067,-74.646436,2023-04-06,123344,2023-04-06 17:17:01 UTC,P,,,2019-05-01,,,,,J1772,US,,,,Privé,,private,,,OFFICE_BLDG,,,,,,,,,,,,,,,,,,,,,,,,,LD
ELEC,Bank of America - Hopewell,1150 American Blvd,,Hopewell Township,NJ,08560,,,E,,Private,Business hours,,,,,,8,,,Non-Networked,,200-8,40.302616,-74.807293,2022-06-14,123502,2023-02-15 22:45:41 UTC,P,,,2018-12-17,,,,,J1772,US,,,,Privé,,private,,,BANK,,,,,,,,,,,,,,,,,,,,,,,,,LD
ELEC,Bank of America - Hopewell,1350 American Blvd,,Hopewell Township,NJ,08534,,,E,,Private,Business hours,,,,,,6,,,Non-Networked,,200-8,40.303354,-74.802941,2022-06-14,123503,2023-02-15 22:45:41 UTC,P,,,2017-04-20,,,,,J1772,US,,,,Privé,,private,,,BANK,,,,,,,,,,,,,,,,,,,,,,,,,LD
ELEC,Woodland Building - Municipal Lot #3,60 Woodland Rd,,Maplewood,NJ,07040,,,E,,Public,9am-6pm daily; maximum session time of 4 hours,,,,,,1,,,Non-Networked,,200-9,40.732048,-74.278351,2023-01-10,129038,2023-02-14 15:54:11 UTC,LG,,,2019-07-16,,,,,J1772,US,,,,Public,,public,,,PARKING_LOT,,,,,,,Free; parking fee,,,,,,,,,,false,,,,,,,,LD
ELEC,GREENLIFE GREENLIFE,6754 Washington Ave,,Egg Harbor Township,NJ,08234,,888-758-4389,E,,Public,24 hours daily,,,,,,,1,,ChargePoint Network,http://www.chargepoint.com/,GPS,39.4046,-74.55359,2023-09-26,143188,2023-09-26 00:35:03 UTC,,,,2019-08-15,,,,,CHADEMO J1772COMBO,US,,,,Public,,public,,,,,,,,,,,,,,,,,,,,,,,,,,,,
ELEC,HANNUM'S H-D DCFAST HOG,12 W Milton Ave,,Rahway,NJ,07065,,888-758-4389,E,,Public,24 hours daily,,,,,,,1,,ChargePoint Network,http://www.chargepoint.com/,GPS,40.60567,-74.278177,2023-09-26,143205,2023-09-26 00:35:00 UTC,,,,2019-08-15,,,,,J1772COMBO,US,,,,Public,,public,,,,,,,,,,,,,,,,,,,,,,,,,,,,
ELEC,GARDEN STATE DCFAST HOG,1775 NJ-10,,Morris Plains,NJ,07950,,888-758-4389,E,,Public,24 hours daily,,,,,,,1,,ChargePoint Network,http://www.chargepoint.com/,GPS,40.84865,-74.47173,2023-09-26,143234,2023-09-26 00:34:52 UTC,,,,2019-08-15,,,,,J1772COMBO,US,,,,Public,,public,,,,,,,,,,,,,,,,,,,,,,,,,,,,
ELEC,JERSEYCITY MONTGOMERY2,281 Marin Blvd,,Jersey City,NJ,07302,,888-758-4389,E,,Public,24 hours daily,,,,,,2,,,ChargePoint Network,http://www.chargepoint.com/,GPS,40.71709,-74.04249,2023-09-26,143354,2023-09-26 00:48:22 UTC,,,,2019-08-15,,,,,J1772,US,,,,Public,,public,,,,,,,,,,,,,,,,,,,,,,,,,,,,
ELEC,MetLife - Bridgewater,501 US Highway 22 W,,Bridgewater,NJ,08807,,,E,,Private,Employee Use Only,,,,,,4,,,Non-Networked,,200-9,40.593428,-74.648283,2022-11-10,143799,2023-02-15 22:45:41 UTC,P,,,2013-07-01,,,,,J1772,US,,,,Privé,,private,,,OFFICE_BLDG,,,,,,,,,,,,,,,,,,,,,,,,,MD
ELEC,MetLife - Convent Station,334 Madison Ave,,Morristown,NJ,07960,,,E,,Private,Employee Use Only,,,,,,4,,,Non-Networked,,200-9,40.778977,-74.446138,2022-11-10,143800,2023-02-15 22:45:41 UTC,P,,,2013-07-01,,,,,J1772,US,,,,Privé,,private,,,OFFICE_BLDG,,,,,,,,,,,,,,,,,,,,,,,,,LD
ELEC,MetLife - Whippany,1 MetLife Way,,Whippany,NJ,07981,,,E,,Private,Employee Use Only,,,,,,4,,,Non-Networked,,200-8,40.818598,-74.417662,2022-01-10,143812,2023-02-15 22:45:41 UTC,P,,,2014-03-01,,,,,J1772,US,,,,Privé,,private,,,OFFICE_BLDG,,,,,,,,,,,,,,,,,,,,,,,,,LD
ELEC,Pearl Street Parking,1 Pearl St,,Metuchen,NJ,08840,,201-948-5030,E,,Public,24 hours daily,,,,,,4,,,Non-Networked,,200-8,40.5405,-74.36233,2021-01-14,144130,2023-01-05 01:21:46 UTC,P,,,2019-08-12,,,,,J1772,US,,,,Public,,public,,,STREET_PARKING,,,,,,,,,,,,,,,,,false,,,,,,,,LD
ELEC,WILLIAMSHD DCFAST HOG,1100 US-22,,Lebanon,NJ,08833,,888-758-4389,E,,Public,24 hours daily,,,,,,,1,,ChargePoint Network,http://www.chargepoint.com/,GPS,40.64508,-74.812904,2023-09-26,145080,2023-09-26 00:36:08 UTC,,,,2019-09-10,,,,,J1772COMBO,US,,,,Public,,public,,,,,,,,,,,,,,,,,,,,,,,,,,,,
ELEC,WOOLWICH TWP WOOLWICH TWP1,101 Village Green Dr,,Woolwich Township,NJ,08085,,888-758-4389,E,,Public,24 hours daily,,,,,,2,,,ChargePoint Network,http://www.chargepoint.com/,GPS,39.735954,-75.324425,2023-09-26,145113,2023-09-26 00:35:11 UTC,,,,2019-09-11,,,,,J1772,US,,,,Public,,public,,,,,,,,,,,,,,,,,,,,,,,,,,,,
ELEC,SHORELINE H-D DCFAST HOG,108 Monmouth Rd,,West Long Branch,NJ,07764,,888-758-4389,E,,Public,24 hours daily,,,,,,,1,,ChargePoint Network,http://www.chargepoint.com/,GPS,40.29799,-74.02846,2023-09-26,145478,2023-09-26 00:36:38 UTC,,,,2019-09-24,,,,,J1772COMBO,US,,,,Public,,public,,,,,,,,,,,,,,,,,,,,,,,,,,,,
ELEC,BOROUGH HALL BOROUGH HALL1,480 DeKorte Drive,,Franklin Lakes,NJ,07417,,888-758-4389,E,,Public,24 hours daily,,,,,,2,,,ChargePoint Network,http://www.chargepoint.com/,GPS,41.019176,-74.19886,2023-09-26,145736,2023-09-26 00:37:02 UTC,,,,2019-10-02,,,,,J1772,US,,,,Public,,public,,,,,,,,,,,,,,,,,,,,,,,,,,,,
ELEC,VERONA TOWNSHIP VERONA TWP1,Bloomfield Ave at Lakeside Ave,,Verona,NJ,07044,,888-758-4389,E,,Public,24 hours daily,,,,,,2,,,ChargePoint Network,http://www.chargepoint.com/,GPS,40.832207,-74.246124,2023-09-26,146800,2023-09-26 00:36:52 UTC,,,,2019-10-11,,,,,J1772,US,,,,Public,,public,,,,,,,,,,,,,,,,,,,,,,,,,,,,
ELEC,RIVERBEND 1 RIVERBEND,25 Ave at Port Imperial,,West New York,NJ,07093,,888-758-4389,E,,Public,24 hours daily,,,,,,1,,,ChargePoint Network,http://www.chargepoint.com/,GPS,40.779675,-74.01007,2023-09-26,146953,2023-09-26 00:36:12 UTC,,,,2019-10-13,,,,,J1772,US,,,,Public,,public,,,,,,,,,,,,,,,,,,,,,,,,,,,,
ELEC,SALEM COUNTY SALEM COUNTY,895 Salem Woodstown Rd,,Woodstown,NJ,08098,,888-758-4389,E,,Public,24 hours daily,,,,,,2,,,ChargePoint Network,http://www.chargepoint.com/,GPS,39.629543,-75.36565,2023-09-26,146987,2023-09-26 00:37:09 UTC,,,,2019-10-16,,,,,J1772,US,,,,Public,,public,,,,,,,,,,,,,,,,,,,,,,,,,,,,
ELEC,TIFFANY CHARGEPOINT 2,14 Sylvan Way,,Parsippany-Troy Hills,NJ,07054,,888-758-4389,E,,Public,24 hours daily,,,,,,2,,,ChargePoint Network,http://www.chargepoint.com/,GPS,40.846592,-74.44111,2023-09-26,147019,2023-09-26 00:37:09 UTC,,,,2019-10-17,,,,,J1772,US,,,,Public,,public,,,,,,,,,,,,,,,,,,,,,,,,,,,,
ELEC,ROWAN AT GC ROWAN AT SJ1,1400 Tanyard Rd,,Deptford Township,NJ,08080,,888-758-4389,E,,Public,24 hours daily,,,,,,2,,,ChargePoint Network,http://www.chargepoint.com/,GPS,39.779728,-75.123055,2023-09-26,147047,2023-09-26 00:36:36 UTC,,,,2019-10-18,,,,,J1772,US,,,,Public,,public,,,,,,,,,,,,,,,,,,,,,,,,,,,,
ELEC,GC DPW GLOU CNTY DPW,1200 N Delsea Dr,,Clayton,NJ,08312,,888-758-4389,E,,Public,24 hours daily,,,,,,2,,,ChargePoint Network,http://www.chargepoint.com/,GPS,39.67707,-75.09824,2023-09-26,147050,2023-09-26 00:35:12 UTC,,,,2019-10-18,,,,,J1772,US,,,,Public,,public,,,,,,,,,,,,,,,,,,,,,,,,,,,,
ELEC,LOT PARKING LOT #1,43 W High St,,Somerville,NJ,08876,,888-758-4389,E,,Public,24 hours daily,,,,,,2,,,ChargePoint Network,http://www.chargepoint.com/,GPS,40.569871,-74.613992,2023-09-26,147148,2023-09-26 00:37:34 UTC,,,,2019-10-23,,,,,J1772,US,,,,Public,,public,,,,,,,,,,,,,,,,,,,,,,,,,,,,
ELEC,Holiday Inn (800-438-8687),283 State Route 17 South,,Hasbrouck Heights,NJ,7604,,800-663-5633,E,,Public,24 hours daily,,,,,,4,,,Blink Network,http://www.blinkcharging.com/,GPS,40.8605497,-74.0672785,2023-09-26,148150,2023-09-26 00:05:41 UTC,,,,2015-04-30,,,,,J1772,US,,,,Public,,public,,,,,,,,,,$2.00-$5.00/Hr Variable Parking Fee,,,,,,,,,,,,,,,,,,
ELEC,26 Main St.,26 Main Street,,Chatham,NJ,7928,,800-663-5633,E,,Public,24 hours daily,,,,,,4,,,Blink Network,http://www.blinkcharging.com/,GPS,40.7398117,-74.3727678,2023-09-26,148151,2023-09-26 00:02:36 UTC,,,,2014-12-26,,,,,J1772,US,,,,Public,,public,,,,,,,,,,FREE,,,,,,,,,,,,,,,,,,
ELEC,Thomas Edison National Historical Park,211 Main St,,West Orange,NJ,07052,,800-663-5633,E,,Public,24 hours daily,,,,,,4,,,Blink Network,http://www.blinkcharging.com/,GPS,40.7840653,-74.2340225,2023-09-26,148152,2023-09-26 00:01:44 UTC,,,,2017-01-23,,,,,J1772,US,,,,Public,,public,,,,,,,,,,FREE,,,,,,,,,,,,,,,Thomas Edison National Historical Park,,,
ELEC,Modera Lofts,350 Warren ST,,Jersey City,NJ,07302,,800-663-5633,E,,Public,24 hours daily,,,,,,2,,,Blink Network,http://www.blinkcharging.com/,GPS,40.719871,-74.0381811,2023-09-26,148163,2023-09-26 00:07:23 UTC,,,,2016-10-08,,,,,J1772,US,,,,Public,,public,,,,,,,,,,FREE,,,,,,,,,,,,,,,,,,
ELEC,Energy Center Princeton LLC,3 Plainsboro Road,,Plainsboro,NJ,08536,,800-663-5633,E,,Public,24 hours daily,,,,,,2,,,Blink Network,http://www.blinkcharging.com/,GPS,40.3397648,-74.6239834,2023-09-26,148176,2023-09-26 00:02:38 UTC,,,,2019-09-13,,,,,J1772,US,,,,Public,,public,,,,,,,,,,$1.00-$3.00/Hr Variable Parking Fee,,,,,,,,,,,,,,,,,,
ELEC,IFF Laboratory,1515 New Jersey 36,,Union Beach,NJ,07735,,800-663-5633,E,,Public,24 hours daily,,,,,,3,,,Blink Network,http://www.blinkcharging.com/,GPS,40.4394847,-74.1568589,2023-09-26,148180,2023-09-26 00:02:38 UTC,,,,2019-01-07,,,,,J1772,US,,,,Public,,public,,,,,,,,,,FREE,,,,,,,,,,,,,,,,,,
ELEC,THE OAKS AT DEN STATION 1,19 Pocono Rd,,Denville,NJ,07834,,888-758-4389,E,,Public,24 hours daily,,,,,,2,,,ChargePoint Network,http://www.chargepoint.com/,GPS,40.89466,-74.46977,2023-09-26,149136,2023-09-26 00:38:37 UTC,,,,2019-11-14,,,,,J1772,US,,,,Public,,public,,,,,,,,,,,,,,,,,,,,,,,,,,,,
ELEC,METLIFE BWWEST,501 US-22,,Bridgewater Township,NJ,08807,,888-758-4389,E,,Public,24 hours daily,,,,,,2,,,ChargePoint Network,http://www.chargepoint.com/,GPS,40.592308,-74.649635,2023-09-26,149175,2023-09-26 00:38:45 UTC,,,,2019-11-15,,,,,J1772,US,,,,Public,,public,,,,,,,,,,,,,,,,,,,,,,,,,,,,
ELEC,Arrow Road,6 Arrow Rd,,Ramsey,NJ,07446,,,E,,Private,24 hours daily,,,,,,6,,,Non-Networked,,200-9,41.066929,-74.121635,2020-04-08,149221,2023-02-15 22:45:41 UTC,P,,,2019-09-02,,,,,J1772,US,,,,Privé,,private,,,OFFICE_BLDG,,,,,,,Free,,,,,,,,,,,,,,,,,,
ELEC,SPARTA TOWNHALL STATION RD1,95 Station Rd,,Sparta,NJ,07871,,888-758-4389,E,,Public,24 hours daily,,,,,,2,,,ChargePoint Network,http://www.chargepoint.com/,GPS,41.047607,-74.625496,2023-09-26,149251,2023-09-26 00:38:01 UTC,,,,2019-11-19,,,,,J1772,US,,,,Public,,public,,,,,,,,,,,,,,,,,,,,,,,,,,,,
ELEC,SPARTA TOWNHALL SPARTA TWP MUNI,65 Main St,,Sparta,NJ,07871,,888-758-4389,E,,Public,24 hours daily,,,,,,2,,,ChargePoint Network,http://www.chargepoint.com/,GPS,41.04064,-74.63106,2023-09-26,149252,2023-09-26 00:38:01 UTC,,,,2019-11-19,,,,,J1772,US,,,,Public,,public,,,,,,,,,,,,,,,,,,,,,,,,,,,,
ELEC,"Target 1085 - Cherry Hill, NJ",2137 NJ-38,,Cherry Hill,NJ,08002,,833-632-2778,E,,Public,24 hours daily,,,,,,1,3,,Electrify America,https://www.electrifyamerica.com/,GPS,39.93478,-75.02644,2023-09-26,149262,2023-09-26 01:25:57 UTC,,,,2019-11-19,,,,,CHADEMO J1772 J1772COMBO,US,,,,Public,,public,,,,,,,,,,,,,,,,,,,,,,,,,,,,
ELEC,APTMTS-SS HADDON ST1,225 Haddon Ave,,Haddon Township,NJ,08108,,888-758-4389,E,,Public,24 hours daily,,,,,,2,,,ChargePoint Network,http://www.chargepoint.com/,GPS,39.90987,-75.046893,2023-09-26,149270,2023-09-26 00:38:56 UTC,,,,2019-11-20,,,,,J1772,US,,,,Public,,public,,,,,,,,,,,,,,,,,,,,,,,,,,,,
ELEC,Wawa - Tesla Supercharger,945 West Bay Avenue,,Barnegat,NJ,08005,,877-798-3752,E,,Public,24 hours daily,,,,,,,8,,Tesla,https://www.tesla.com/supercharger,200-9,39.759444,-74.253456,2023-07-01,149294,2023-07-14 19:41:28 UTC,P,,,2019-09-30,,,,,TESLA,US,,,,Public,,public,,,,,,,,,,,,,,,,,,,,,,,,,,,,
ELEC,Dewey Meadow Shopping Center - Tesla Supercharger,415 King George Road,,Basking Ridge,NJ,07920,,877-798-3752,E,,Public,24 hours daily,,,,,,,8,,Tesla,https://www.tesla.com/supercharger,200-9,40.655365,-74.52993,2023-07-01,149295,2023-07-14 19:41:28 UTC,P,,,2019-09-30,,,,,TESLA,US,,,,Public,,public,,,,,,,,,,,,,,,,,,,,,,,,,,,,
ELEC,Plaza at Cape May Courthouse - Tesla Supercharger,11 Court House South Dennis Road,,Cape May Court House,NJ,08210,,877-798-3752,E,,Public,24 hours daily,,,,,,,12,,Tesla,https://www.tesla.com/supercharger,GPS,39.088405,-74.821456,2023-07-01,149301,2023-07-14 19:41:28 UTC,P,,,2019-09-30,,,,,TESLA,US,,,,Public,,public,,,,,,,,,,,,,,,,,,,,,,,,,,,,
ELEC,Brunswick Square - Tesla Supercharger,755 State Route 18,,East Brunswick,NJ,08816,,877-798-3752,E,,Public,24 hours daily,,,,,,,16,,Tesla,https://www.tesla.com/supercharger,200-9,40.424158,-74.379906,2023-07-01,149306,2023-07-14 19:41:28 UTC,P,,,2019-09-30,,,,,TESLA,US,,,,Public,,public,,,,,,,,,,,,,,,,,,,,,,,,,,,,
ELEC,The Promenade at Sagemore - Tesla Supercharger,500 NJ-73,,Marlton,NJ,08053,,877-798-3752,E,,Public,24 hours daily,,,,,,,12,,Tesla,https://www.tesla.com/supercharger,200-9,39.877502,-74.918512,2023-07-01,149327,2023-07-14 19:41:28 UTC,P,,,2019-09-30,,,,,TESLA,US,,,,Public,,public,,,,,,,,,,,,,,,,,,,,,,,,,,,,
ELEC,QuickChek - Tesla Supercharger,315 Robbinsville-Allentown Road,,Robbinsville,NJ,08691,,877-798-3752,E,,Public,24 hours daily,,,,,,,8,,Tesla,https://www.tesla.com/supercharger,200-9,40.193806,-74.59535,2023-07-01,149351,2023-07-14 19:41:28 UTC,P,,,2019-09-30,,,,,TESLA,US,,,,Public,,public,,,,,,,,,,,,,,,,,,,,,,,,,,,,
LPG,Whitehouse Auto Service,378 Route 22 W,,Whitehouse,NJ,08888,,908-534-4495,E,,Public,6am-9pm daily,A Cash D Debit FleetOne M V Voyager Wright_Exp,,,,,,,,,,200-9,40.619029,-74.750997,2022-11-10,150012,2023-02-14 15:54:11 UTC,P,,,2019-12-13,,,true,,,US,,,,Public,,public,,,AUTO_REPAIR,,,,,,,,,"[""ACME"", ""QUICK_CONNECT""]",,,,,,,,false,,,,,,,,HD
ELEC,Wawa - Tesla Supercharger,379 Dover Road,,Toms River,NJ,08757,,877-798-3752,E,,Public,24 hours daily,,,,,,,8,,Tesla,https://www.tesla.com/supercharger,GPS,39.9418,-74.21245,2023-07-01,150233,2023-07-14 19:41:28 UTC,P,,,2019-11-19,,,,,TESLA,US,,,,Public,,public,,,SHOPPING_CENTER,,,,,,,,,,,,,,,,,,,,,,,,,
ELEC,Automotive Innovations Inc,204 Lackawanna Ave,,Woodland Park,NJ,07424,,,E,,Private,,,,,,,1,,,Non-Networked,,200-8,40.888281,-74.209175,2022-01-10,150402,2022-02-10 19:42:29 UTC,P,,,2019-12-19,,,,,TESLA,US,,,,Privé,,private,,,OFFICE_BLDG,,,,,,,,,,,,,,,,,,,,,,,,,LD
ELEC,Nokia Bell Lab,600 Mountain Ave,,Murray Hill,NJ,07974,,,E,,Private,,,,,,,4,,,Non-Networked,,200-9,40.685377,-74.401576,2022-01-10,150403,2022-02-10 19:42:29 UTC,P,,,2019-12-19,,,,,J1772,US,,,,Privé,,private,,,OFFICE_BLDG,,,,,,,,,,,,,,,,,,,,,,,,,LD
ELEC,Amy S. Greene Environmental Consultants,4 Walter E Foran Blvd,,Flemington,NJ,08822,,,E,,Private,24 hours daily; Membership through Member Planet site,,,,,,4,,,Non-Networked,,200-9,40.522209,-74.857248,2022-01-10,150404,2023-02-15 22:45:41 UTC,P,,,2019-12-12,,,,,J1772 TESLA,US,,,,Privé,,private,,,OFFICE_BLDG,,,,,,,$60 per month for unlimited use,,,,,,,,,,,,,,,,,,LD
ELEC,Allure Home Creation,85 Fulton St,,Boonton,NJ,07005,,,E,,Private,,,,,,,1,,,Non-Networked,,200-9,40.912676,-74.392276,2023-02-13,150416,2023-02-14 15:54:11 UTC,P,,,2019-12-12,,,,,J1772,US,,,,Privé,,private,,,OFFICE_BLDG,,,,,,,,,,,,,,,,,,,,,,,,,LD
ELEC,Borough of Demarest,22 Wakelee Dr,,Demarest,NJ,07627,,,E,,Private,,,,,,,2,,,Non-Networked,,200-9,40.956514,-73.964381,2022-01-10,150418,2022-02-10 19:42:29 UTC,P,,,2019-12-12,,,,,J1772,US,,,,Privé,,private,,,MUNI_GOV,,,,,,,,,,,,,,,,,,,,,,,,,LD
ELEC,Borough of Glen Rock,176 Rock Rd,,Glen Rock,NJ,07452,,,E,,Private,,,,,,,2,,,Non-Networked,,200-8,40.962481,-74.133391,2023-02-13,150419,2023-02-14 15:54:11 UTC,P,,,2019-12-12,,,,,J1772 TESLA,US,,,,Privé,,private,,,MUNI_GOV,,,,,,,,,,,,,,,,,,,,,,,,,LD
ELEC,Central United Methodist Church,5 Marvin Ave,,Linwood,NJ,08221,,,E,,Private,,,,,,,1,,,Non-Networked,,200-8,39.357783,-74.56111,2022-01-10,150428,2023-02-15 22:45:41 UTC,P,,,2019-12-12,,,,,J1772,US,,,,Privé,,private,,,PLACE_OF_WORSHIP,,,,,,,,,,,,,,,,,,,,,,,,,LD
ELEC,City of Ocean City,861 Asbury Ave,,Ocean City,NJ,08226,,,E,,Public,24 hours daily,,,,,,2,,,Non-Networked,,200-9,39.278858,-74.575798,2022-11-10,150429,2023-02-14 15:54:11 UTC,P,,,2019-12-12,,,,,J1772,US,,,,Public,,public,,,MUNI_GOV,,,,,,,Free,,,,,,,,,,false,,,,,,,,LD
ELEC,Noor Ul Iman School,4145 US-1,,Monmouth Junction,NJ,08852,,,E,,Private,,,,,,,2,,,Non-Networked,,200-9,40.389258,-74.570998,2023-02-13,150430,2023-02-14 15:54:11 UTC,P,,,2019-12-12,,,,,J1772,US,,,,Privé,,private,,,SCHOOL,,,,,,,,,,,,,,,,,,,,,,,,,LD
ELEC,Domain Information Systems,1 Corporate Dr,,Cranbury,NJ,08512,,,E,,Private,Employee use only,,,,,,2,,,Non-Networked,,200-9,40.335128,-74.48698,2023-01-10,150431,2023-02-14 15:54:11 UTC,P,,,2019-12-12,,,,,J1772,US,,,,Privé,,private,,,OFFICE_BLDG,,,,,,,,,,,,,,,,,,,,,,,,,LD
ELEC,Dow Jones and Co,4300 Route 1 N,,Monmouth Junction,NJ,08852,,,E,,Private,,,,,,,5,,,Non-Networked,,GPS,40.37069212852983,-74.5874590978699,2022-01-10,150432,2022-02-10 19:42:29 UTC,P,,,2019-12-12,,,,,J1772,US,,,,Privé,,private,,,OFFICE_BLDG,,,,,,,,,,,,,,,,,,,,,,,,,LD
ELEC,Hackensack University Medical Center,284 Atlantic St,,Hackensack,NJ,07601,,,E,,Private,,,,,,,10,,,Non-Networked,,200-9,40.884982,-74.055204,2022-01-10,150433,2022-02-10 19:42:29 UTC,P,,,2019-12-12,,,,,J1772,US,,,,Privé,,private,,,HOSPITAL,,,,,,,,,,,,,,,,,,,,,,,,,LD
ELEC,Hampton Inn Clinton,16 Frontage Dr,,Clinton,NJ,08809,,908-713-4800,E,,Public,24 hours daily; for guest use only; see front desk for access,,,,,,2,,,Non-Networked,,200-9,40.628918,-74.917559,2023-01-10,150434,2023-02-14 15:54:11 UTC,P,,,2019-12-12,,,,,J1772,US,,,,Public,,public,,,HOTEL,,,,,,,,,,,,,,,,,true,,,,,,,,LD
ELEC,Knickerbocker Country Club,188 Knickerbocker Rd,,Tenafly,NJ,07670,,,E,,Private,,,,,,,2,,,Non-Networked,,200-8,40.918349,-73.97835,2023-02-13,150435,2023-02-14 15:54:11 UTC,P,,,2019-12-12,,,,,J1772,US,,,,Privé,,private,,,REC_SPORTS_FACILITY,,,,,,,,,,,,,,,,,,,,,,,,,LD
ELEC,Laboratory Sales and Services,10 County Line Rd,,Branchburg,NJ,08876,,,E,,Private,,,,,,,1,,,Non-Networked,,200-9,40.608403,-74.714766,2023-01-10,150436,2023-02-15 22:45:41 UTC,P,,,2019-12-12,,,,,TESLA,US,,,,Privé,,private,,,OFFICE_BLDG,,,,,,,,,,,,,,,,,,,,,,,,,LD
ELEC,Morris County Vocational School District,400 E Main St,,Denville,NJ,07834,,,E,,Private,For staff members,,,,,,2,,,Non-Networked,,200-9,40.878626,-74.479131,2023-01-10,150438,2023-02-15 22:45:41 UTC,P,,,2019-12-12,,,,,J1772,US,,,,Privé,,private,,,SCHOOL,,,,,,,,,,,,,,,,,,,,,,,,,LD
ELEC,New Jersey City University,2039 Kennedy Blvd,,Jersey City,NJ,07305,,,E,,Private,"Faculty, staff, and student use only",,,,,,5,,,Non-Networked,,200-9,40.710309,-74.086912,2023-01-10,150439,2023-02-14 15:54:11 UTC,P,,,2019-12-12,,,,,J1772,US,,,,Privé,,private,,,COLLEGE_CAMPUS,,,,,,,,,,,,,,,,,,,,,,,,,LD
ELEC,Newton Inn,8 N Park Dr,,Newton,NJ,07860,,,E,,Private,24 hours daily; for guest use only; see front desk for access,,,,,,4,,,Non-Networked,,200-9,41.06840842,-74.747829,2022-11-10,150440,2023-02-14 15:54:11 UTC,P,,,2019-12-12,,,,,J1772,US,,,,Privé,,private,,,HOTEL,,,,,,,,,,,,,,,,,,,,,,,,,LD
ELEC,Paramus Inn,50 NJ-17,,Paramus,NJ,07652,,,E,,Private,24 hours daily; for guest use only; see front desk for access,,,,,,4,,,Non-Networked,,200-8,40.923957,-74.071121,2022-11-10,150441,2023-02-14 15:54:11 UTC,P,,,2019-12-12,,,,,J1772,US,,,,Privé,,private,,,HOTEL,,,,,,,Free,,,,,,,,,,,,,,,,,,LD
ELEC,PBA Engineering,12 Kulick Rd,,Fairfield,NJ,07004,,,E,,Private,,,,,,,3,,,Non-Networked,,200-9,40.87358,-74.297309,2020-04-08,150442,2023-02-15 22:45:41 UTC,P,,,2019-12-12,,,,,J1772,US,,,,Privé,,private,,,OFFICE_BLDG,,,,,,,,,,,,,,,,,,,,,,,,,
